,City ID,City,Country Code,Latitude,Longitude,Temp Kelvin,Temp C,Temp F,Humidity (RH)%,Cloud% Cover,wind speed (m/s),wind speed (mph),Time stamp
0,662096,Äänekoski,FI,62.69,25.82,276.62,3.0,38.0,93,90,3.6,8.0,['22 Nov 2020 21:55:58']
1,1512223,Abalak,RU,58.13,68.59,262.36,-11.0,13.0,95,63,2.61,5.8,['22 Nov 2020 21:55:58']
2,110690,Abhā,SA,18.22,42.51,282.55,9.0,49.0,28,0,0.87,1.93,['22 Nov 2020 21:55:58']
3,172515,Abu Samrah,SY,35.3,37.18,284.78,12.0,53.0,82,11,0.58,1.29,['22 Nov 2020 21:55:58']
4,3533462,Acapulco de Juárez,MX,16.86,-99.89,300.15,27.0,81.0,88,5,3.1,6.89,['22 Nov 2020 21:55:58']
5,3408368,Acaraú,BR,-2.89,-40.12,299.33,26.0,79.0,79,35,5.78,12.84,['22 Nov 2020 21:55:58']
6,922015,Acoua,YT,-12.72,45.06,300.15,27.0,81.0,78,20,2.1,4.67,['22 Nov 2020 21:55:58']
7,235489,Adjumani,UG,3.38,31.79,295.2,22.0,72.0,85,90,0.72,1.6,['22 Nov 2020 21:55:58']
8,2381972,Adrar,MR,20.5,-10.07,292.09,19.0,66.0,27,5,6.26,13.91,['22 Nov 2020 21:55:58']
9,2351979,Agbor,NG,6.25,6.19,296.33,23.0,74.0,97,100,1.4,3.11,['22 Nov 2020 21:55:58']
10,2522325,Agüimes,ES,27.91,-15.45,295.18,22.0,72.0,40,0,2.6,5.78,['22 Nov 2020 21:55:58']
11,1651810,Airai,TL,-8.93,125.41,299.24,26.0,79.0,56,44,1.4,3.11,['22 Nov 2020 21:55:58']
12,3038333,Arrondissement d'Ajaccio,FR,42.0,8.92,278.15,5.0,41.0,75,0,3.6,8.0,['22 Nov 2020 21:55:58']
13,1295765,Sittwe,MM,20.15,92.9,297.91,25.0,77.0,67,4,2.66,5.91,['22 Nov 2020 21:55:58']
14,5106841,Albany,US,42.6,-73.97,278.75,6.0,42.0,74,100,4.59,10.2,['22 Nov 2020 21:55:58']
15,2522091,Alcúdia,ES,39.85,3.12,280.56,7.0,45.0,83,1,2.3,5.11,['22 Nov 2020 21:55:58']
16,583345,Aleksandrov Gay,RU,50.15,48.57,270.61,-3.0,27.0,98,100,4.53,10.07,['22 Nov 2020 21:55:58']
17,361058,Alexandria,EG,31.22,29.96,290.15,17.0,63.0,88,40,1.0,2.22,['22 Nov 2020 21:55:58']
18,3183284,Alghero,IT,40.56,8.32,279.99,7.0,44.0,87,0,2.6,5.78,['22 Nov 2020 21:55:58']
19,2521883,Almeria,ES,37.17,-2.33,282.72,9.0,49.0,76,0,5.7,12.67,['22 Nov 2020 21:55:58']
20,6316343,Alta Floresta,BR,-9.88,-56.09,295.87,23.0,73.0,87,96,0.73,1.62,['22 Nov 2020 21:55:58']
21,245338,Am Timan,TD,11.03,20.28,294.75,22.0,71.0,35,94,1.74,3.87,['22 Nov 2020 21:55:58']
22,3407762,Amapá,BR,1.0,-52.0,295.8,23.0,73.0,98,100,1.07,2.38,['22 Nov 2020 21:55:58']
23,1082243,Ambilobe,MG,-13.2,49.05,296.63,23.0,74.0,78,0,1.71,3.8,['22 Nov 2020 21:55:58']
24,1651531,Ambon City,ID,-3.7,128.18,306.15,33.0,91.0,66,40,4.1,9.11,['22 Nov 2020 21:55:58']
25,1079048,Ambovombe,MG,-25.17,46.08,295.83,23.0,73.0,84,11,3.19,7.09,['22 Nov 2020 21:55:58']
26,5637146,Anaconda,US,46.13,-112.94,267.15,-6.0,21.0,67,1,2.6,5.78,['22 Nov 2020 21:55:58']
27,2127202,Anadyr,RU,64.75,177.48,270.15,-3.0,27.0,92,40,5.0,11.11,['22 Nov 2020 21:55:58']
28,265127,Paralia Milatou,GR,35.32,25.57,288.26,15.0,59.0,72,75,5.1,11.33,['22 Nov 2020 21:55:58']
29,3899695,Ancud,CL,-41.87,-73.82,281.34,8.0,47.0,87,0,2.6,5.78,['22 Nov 2020 21:55:58']
30,2304548,Anloga,GH,5.79,0.9,300.15,27.0,81.0,88,20,3.1,6.89,['22 Nov 2020 21:55:58']
31,1071296,Antalaha,MG,-14.9,50.28,295.96,23.0,73.0,80,9,2.97,6.6,['22 Nov 2020 21:55:58']
32,2460954,Araouane,ML,18.9,-3.53,292.97,20.0,68.0,30,0,7.03,15.62,['22 Nov 2020 21:55:58']
33,3665202,Aripuanã,BR,-9.17,-60.63,295.83,23.0,73.0,92,24,1.2,2.67,['22 Nov 2020 21:55:58']
34,2447513,Arlit,NE,18.74,7.39,292.63,19.0,67.0,24,0,2.31,5.13,['22 Nov 2020 21:55:58']
35,3471451,Arraial do Cabo,BR,-22.97,-42.03,295.11,22.0,72.0,76,98,4.78,10.62,['22 Nov 2020 21:55:58']
36,1278335,Ārvi,IN,20.98,78.23,293.2,20.0,68.0,38,0,2.31,5.13,['22 Nov 2020 21:55:58']
37,2725123,Arvika,SE,59.66,12.59,277.15,4.0,39.0,69,7,3.6,8.0,['22 Nov 2020 21:55:58']
38,2537881,Safi,MA,32.3,-9.24,291.65,18.0,65.0,65,0,1.77,3.93,['22 Nov 2020 21:55:58']
39,343292,Āsosa,ET,10.07,34.53,290.71,18.0,64.0,50,52,1.35,3.0,['22 Nov 2020 21:55:58']
40,359792,Aswān,EG,24.09,32.91,287.09,14.0,57.0,51,0,3.64,8.09,['22 Nov 2020 21:55:58']
41,2381334,Atar,MR,20.52,-13.05,295.79,23.0,73.0,22,27,5.89,13.09,['22 Nov 2020 21:55:58']
42,2436400,Ati,TD,13.22,18.34,296.64,23.0,74.0,29,69,4.17,9.27,['22 Nov 2020 21:55:58']
43,4020109,Atuona,PF,-9.8,-139.03,298.73,26.0,78.0,71,12,6.1,13.56,['22 Nov 2020 21:55:58']
44,4035715,Avarua,CK,-21.21,-159.78,298.15,25.0,77.0,88,100,3.6,8.0,['22 Nov 2020 21:55:58']
45,2303611,Esim,GH,4.87,-2.24,298.63,26.0,78.0,86,1,2.88,6.4,['22 Nov 2020 21:55:58']
46,2447416,Ayorou,NE,14.73,0.92,294.17,21.0,70.0,22,9,2.22,4.93,['22 Nov 2020 21:55:58']
47,2367660,Badou,TG,7.58,0.6,295.83,23.0,73.0,81,0,0.7,1.56,['22 Nov 2020 21:55:58']
48,2375255,Bafatá,GW,12.17,-14.75,295.19,22.0,72.0,85,5,0.93,2.07,['22 Nov 2020 21:55:58']
49,1728675,Balabac,PH,7.99,117.06,302.54,29.0,85.0,74,92,8.47,18.82,['22 Nov 2020 21:55:58']
50,98112,Balad,IQ,34.02,44.15,287.11,14.0,57.0,53,4,3.78,8.4,['22 Nov 2020 21:55:58']
51,610445,Balyqshy,KZ,47.07,51.87,268.15,-5.0,23.0,62,0,4.0,8.89,['22 Nov 2020 21:55:58']
52,1650434,Bambanglipuro,ID,-7.95,110.28,303.06,30.0,86.0,65,91,2.93,6.51,['22 Nov 2020 21:55:58']
53,1106677,Bambous Virieux,MU,-20.34,57.76,297.1,24.0,75.0,83,75,4.1,9.11,['22 Nov 2020 21:55:58']
54,2460546,Banamba,ML,13.55,-7.45,293.66,21.0,69.0,24,12,3.86,8.58,['22 Nov 2020 21:55:58']
55,1215502,Banda Aceh,ID,5.56,95.32,300.84,28.0,82.0,68,73,3.5,7.78,['22 Nov 2020 21:55:58']
56,64814,Bandarbeyla,SO,9.49,50.81,298.41,25.0,77.0,73,84,4.66,10.36,['22 Nov 2020 21:55:58']
57,240498,Bangassou,CF,4.74,22.82,292.31,19.0,66.0,71,48,1.26,2.8,['22 Nov 2020 21:55:58']
58,2347758,Bara,NG,10.37,10.73,296.19,23.0,73.0,41,94,2.87,6.38,['22 Nov 2020 21:55:58']
59,1650064,Barabai,ID,-2.58,115.38,304.61,32.0,89.0,62,88,0.88,1.96,['22 Nov 2020 21:55:58']
60,1021040,Barkly West,ZA,-28.54,24.52,289.15,16.0,61.0,87,0,3.6,8.0,['22 Nov 2020 21:55:58']
61,3379507,Bartica,GY,6.4,-58.62,297.15,24.0,75.0,100,75,1.0,2.22,['22 Nov 2020 21:55:58']
62,219414,Basoko,CD,1.24,23.62,295.63,22.0,72.0,83,91,0.25,0.56,['22 Nov 2020 21:55:58']
63,3374083,Bathsheba,BB,13.22,-59.52,298.15,25.0,77.0,83,75,10.3,22.89,['22 Nov 2020 21:55:58']
64,1250161,Batticaloa,LK,7.71,81.69,298.38,25.0,77.0,89,100,4.15,9.22,['22 Nov 2020 21:55:58']
65,2303287,Bawku,GH,11.06,-0.24,295.56,22.0,72.0,26,1,3.15,7.0,['22 Nov 2020 21:55:58']
66,2303258,Bechem,GH,7.09,-2.02,294.84,22.0,71.0,96,15,0.74,1.64,['22 Nov 2020 21:55:58']
67,1052373,Beira,MZ,-19.84,34.84,296.04,23.0,73.0,94,20,2.6,5.78,['22 Nov 2020 21:55:58']
68,3470164,Bela Vista de Goiás,BR,-16.97,-48.95,298.15,25.0,77.0,69,0,3.6,8.0,['22 Nov 2020 21:55:58']
69,3470137,Belmonte,BR,-15.86,-38.88,296.15,23.0,73.0,88,75,1.0,2.22,['22 Nov 2020 21:55:58']
70,1067565,Beloha,MG,-25.17,45.05,296.69,23.0,74.0,69,3,4.91,10.91,['22 Nov 2020 21:55:58']
71,1649150,Bengkulu,ID,-3.8,102.27,296.46,23.0,74.0,95,100,1.29,2.87,['22 Nov 2020 21:55:58']
72,3351663,Benguela,AO,-12.58,13.41,297.04,24.0,75.0,80,100,1.72,3.82,['22 Nov 2020 21:55:58']
73,219057,Beni,CD,0.5,29.47,289.66,17.0,62.0,98,72,0.64,1.42,['22 Nov 2020 21:55:58']
74,377472,Bentiu,SS,9.23,29.83,294.58,22.0,71.0,24,0,2.39,5.31,['22 Nov 2020 21:55:58']
75,3105522,Bereda,ES,43.27,-7.54,276.75,3.0,38.0,100,1,0.28,0.62,['22 Nov 2020 21:55:58']
76,2303125,Berekum,GH,7.45,-2.58,294.36,21.0,70.0,97,3,1.64,3.64,['22 Nov 2020 21:55:58']
77,3182153,Bernalda,IT,40.41,16.69,284.82,12.0,53.0,80,90,0.45,1.0,['22 Nov 2020 21:55:58']
78,2423126,Beyla,GN,8.68,-8.63,292.47,19.0,67.0,59,94,1.03,2.29,['22 Nov 2020 21:55:58']
79,1637001,Biak,ID,-0.91,122.88,302.45,29.0,85.0,68,98,1.44,3.2,['22 Nov 2020 21:55:58']
80,2446796,Bilma,NE,18.69,12.92,289.3,16.0,61.0,33,0,1.09,2.42,['22 Nov 2020 21:55:58']
81,244878,Biltine,TD,14.53,20.92,294.4,21.0,70.0,24,100,6.16,13.69,['22 Nov 2020 21:55:58']
82,1737486,Bintulu,MY,3.17,113.03,303.15,30.0,86.0,74,40,1.5,3.33,['22 Nov 2020 21:55:58']
83,240210,Birao,CF,10.28,22.79,293.37,20.0,68.0,32,87,2.7,6.0,['22 Nov 2020 21:55:58']
84,3032556,Biscarrosse,FR,44.39,-1.17,274.15,1.0,34.0,100,0,1.75,3.89,['22 Nov 2020 21:55:58']
85,2401578,Bitam,GA,2.08,11.5,292.58,19.0,67.0,98,100,1.42,3.16,['22 Nov 2020 21:55:58']
86,3664980,Boa Vista,BR,2.82,-60.67,299.15,26.0,79.0,83,40,1.5,3.33,['22 Nov 2020 21:55:58']
87,218680,Boende,CD,-0.22,20.87,295.01,22.0,71.0,97,100,0.61,1.36,['22 Nov 2020 21:55:58']
88,1509844,Boguchany,RU,58.38,97.45,264.54,-8.0,17.0,95,75,2.42,5.38,['22 Nov 2020 21:55:58']
89,2434985,Bokoro,TD,12.38,17.06,296.8,24.0,75.0,28,65,3.82,8.49,['22 Nov 2020 21:55:58']
90,3405304,Bom Jesus,BR,-9.07,-44.36,295.24,22.0,72.0,92,100,0.67,1.49,['22 Nov 2020 21:55:58']
91,2303258,Boma,GH,7.08,-2.17,295.08,22.0,71.0,95,12,0.84,1.87,['22 Nov 2020 21:55:58']
92,200308,Sotik Post,KE,-0.78,35.34,284.59,12.0,53.0,93,2,1.14,2.53,['22 Nov 2020 21:55:58']
93,2291136,Bondoukou,CI,8.03,-2.8,295.38,22.0,72.0,80,18,1.51,3.36,['22 Nov 2020 21:55:58']
94,218229,Bongandanga,CD,1.5,21.05,294.39,21.0,70.0,88,32,0.69,1.53,['22 Nov 2020 21:55:58']
95,2291087,Bonoua,CI,5.27,-3.6,300.15,27.0,81.0,88,75,2.6,5.78,['22 Nov 2020 21:55:58']
96,2409914,Bonthe,SL,7.53,-12.51,298.77,26.0,78.0,83,24,1.49,3.31,['22 Nov 2020 21:55:58']
97,2401495,Booué,GA,-0.09,11.94,294.71,22.0,71.0,96,95,1.07,2.38,['22 Nov 2020 21:55:58']
98,711621,Borova,UA,50.18,30.1,276.0,3.0,37.0,69,75,4.0,8.89,['22 Nov 2020 21:55:58']
99,64013,Bosaso,SO,11.28,49.18,297.3,24.0,75.0,84,100,1.63,3.62,['22 Nov 2020 21:55:58']
100,2387890,Bouca,CF,6.51,18.27,294.42,21.0,70.0,53,91,1.03,2.29,['22 Nov 2020 21:55:58']
101,2459775,Bougouni,ML,11.42,-7.48,293.52,21.0,69.0,34,0,1.08,2.4,['22 Nov 2020 21:55:58']
102,2361845,Boussé,BF,12.66,-1.89,295.15,22.0,72.0,35,0,1.5,3.33,['22 Nov 2020 21:55:58']
103,2387546,Bozoum,CF,6.32,16.38,293.55,21.0,69.0,54,89,1.4,3.11,['22 Nov 2020 21:55:58']
104,2654970,Brae,GB,60.4,-1.35,281.15,8.0,46.0,75,96,9.3,20.67,['22 Nov 2020 21:55:58']
105,3405006,Bragança,BR,-1.05,-46.77,297.27,24.0,75.0,94,100,1.04,2.31,['22 Nov 2020 21:55:58']
106,2260535,Brazzaville,CG,-4.27,15.28,295.76,23.0,73.0,94,75,3.6,8.0,['22 Nov 2020 21:55:58']
107,1015776,Bredasdorp,ZA,-34.53,20.04,286.15,13.0,55.0,93,52,1.0,2.22,['22 Nov 2020 21:55:58']
108,2654728,Bridlington,GB,54.08,-0.19,275.73,3.0,37.0,93,0,2.6,5.78,['22 Nov 2020 21:55:58']
109,4500920,Brigantine,US,39.41,-74.36,287.76,14.0,58.0,87,90,4.1,9.11,['22 Nov 2020 21:55:58']
110,2173911,Broken Hill,AU,-31.95,141.43,299.15,26.0,79.0,50,100,8.2,18.22,['22 Nov 2020 21:55:58']
111,1015504,Bronkhorstspruit,ZA,-25.81,28.74,289.59,17.0,62.0,93,61,2.1,4.67,['22 Nov 2020 21:55:58']
112,5110365,Broome,US,42.25,-75.83,279.51,6.0,43.0,87,90,6.7,14.89,['22 Nov 2020 21:55:58']
113,4676798,Brownwood,US,31.71,-98.99,283.15,10.0,50.0,87,90,3.6,8.0,['22 Nov 2020 21:55:58']
114,3181480,Bruneck,IT,46.8,11.94,274.71,2.0,35.0,82,100,0.32,0.71,['22 Nov 2020 21:55:58']
115,2741961,Buarcos,PT,40.17,-8.88,281.51,8.0,47.0,100,58,1.0,2.22,['22 Nov 2020 21:55:58']
116,2374588,Buba,GW,11.58,-15.0,296.58,23.0,74.0,92,48,0.93,2.07,['22 Nov 2020 21:55:58']
117,2374583,Bubaque,GW,11.28,-15.83,301.05,28.0,82.0,77,14,4.43,9.84,['22 Nov 2020 21:55:58']
118,2278158,Buchanan,LR,5.88,-10.05,297.15,24.0,75.0,94,20,1.66,3.69,['22 Nov 2020 21:55:58']
119,2316259,Bulungu,CD,-4.55,18.6,294.23,21.0,70.0,96,97,0.77,1.71,['22 Nov 2020 21:55:58']
120,217745,Bumba,CD,2.18,22.47,295.11,22.0,72.0,83,97,0.9,2.0,['22 Nov 2020 21:55:58']
121,107304,Buraidah,SA,26.33,43.98,285.15,12.0,54.0,66,0,3.1,6.89,['22 Nov 2020 21:55:58']
122,3468720,Buritizeiro,BR,-17.35,-44.96,293.37,20.0,68.0,90,2,1.57,3.49,['22 Nov 2020 21:55:58']
123,2075265,Busselton,AU,-33.65,115.33,303.19,30.0,86.0,31,0,1.87,4.16,['22 Nov 2020 21:55:58']
124,1586443,Ca Mau,VN,9.18,105.15,303.52,31.0,87.0,65,87,2.99,6.64,['22 Nov 2020 21:55:58']
125,3985710,Cabo San Lucas,MX,22.89,-109.91,297.72,24.0,76.0,61,5,2.6,5.78,['22 Nov 2020 21:55:58']
126,2520610,Caceres,ES,39.52,-6.37,280.37,7.0,45.0,91,1,1.48,3.29,['22 Nov 2020 21:55:58']
127,3922414,Camiri,BO,-20.05,-63.52,295.47,22.0,72.0,47,41,0.88,1.96,['22 Nov 2020 21:55:58']
128,3403353,Canindé,BR,-4.36,-39.31,297.87,24.0,76.0,73,41,1.02,2.27,['22 Nov 2020 21:55:58']
129,934649,Cap Malheureux,MU,-19.98,57.61,298.15,25.0,77.0,69,28,4.02,8.93,['22 Nov 2020 21:55:58']
130,2302357,Cape Coast,GH,5.11,-1.25,298.66,26.0,78.0,86,16,3.78,8.4,['22 Nov 2020 21:55:58']
131,3369157,Cape Town,ZA,-33.93,18.42,288.48,16.0,60.0,82,75,2.1,4.67,['22 Nov 2020 21:55:58']
132,3922125,Capinota,BO,-17.72,-66.23,294.15,21.0,70.0,40,75,3.6,8.0,['22 Nov 2020 21:55:58']
133,3403082,Capoeiras,BR,-8.73,-36.63,291.17,18.0,64.0,94,27,3.55,7.89,['22 Nov 2020 21:55:58']
134,3466980,Caravelas,BR,-17.71,-39.25,296.0,23.0,73.0,95,100,3.86,8.58,['22 Nov 2020 21:55:58']
135,3126369,Carballo,ES,43.21,-8.69,280.2,7.0,45.0,100,90,2.1,4.67,['22 Nov 2020 21:55:58']
136,2074865,Carnarvon,AU,-24.87,113.63,303.15,30.0,86.0,51,0,4.6,10.22,['22 Nov 2020 21:55:58']
137,2387495,Carnot,CF,4.94,15.87,294.78,22.0,71.0,57,85,1.25,2.78,['22 Nov 2020 21:55:58']
138,3402648,Carutapera,BR,-1.2,-46.02,299.0,26.0,79.0,80,100,2.38,5.29,['22 Nov 2020 21:55:58']
139,3028351,Castelnaudary,FR,43.32,1.95,273.15,0.0,32.0,74,0,0.5,1.11,['22 Nov 2020 21:55:58']
140,3466704,Castro,BR,-24.79,-50.01,286.6,13.0,56.0,97,5,2.86,6.36,['22 Nov 2020 21:55:58']
141,3837702,San Fernando del Valle de Catamarca,AR,-28.47,-65.79,294.25,21.0,70.0,52,6,7.8,17.33,['22 Nov 2020 21:55:58']
142,3402429,Caucaia,BR,-3.74,-38.65,300.26,27.0,81.0,78,40,5.1,11.33,['22 Nov 2020 21:55:58']
143,2269449,Caxias,PT,38.7,-9.28,287.06,14.0,57.0,87,0,1.5,3.33,['22 Nov 2020 21:55:58']
144,3382160,Cayenne,GF,4.93,-52.33,297.15,24.0,75.0,100,75,3.58,7.96,['22 Nov 2020 21:55:58']
145,3698359,Chicama,PE,-7.84,-79.15,290.96,18.0,64.0,79,45,2.13,4.73,['22 Nov 2020 21:55:58']
146,893485,Chiredzi,ZW,-21.05,31.67,297.1,24.0,75.0,77,93,0.55,1.22,['22 Nov 2020 21:55:58']
147,3178754,Chiusi,IT,43.02,11.95,274.61,2.0,35.0,83,0,0.89,1.98,['22 Nov 2020 21:55:58']
148,3443061,Chui,UY,-33.7,-53.46,287.23,14.0,57.0,86,0,3.24,7.2,['22 Nov 2020 21:55:58']
149,3466165,Cidreira,BR,-30.18,-50.21,292.11,19.0,66.0,71,3,6.17,13.71,['22 Nov 2020 21:55:58']
150,2401357,Cocobeach,GA,1.0,9.58,298.15,25.0,77.0,94,40,2.6,5.78,['22 Nov 2020 21:55:58']
151,2171099,Codrington,AU,-38.27,141.97,290.18,17.0,63.0,75,84,6.63,14.73,['22 Nov 2020 21:55:58']
152,3894426,Coyhaique,CL,-45.58,-72.07,282.15,9.0,48.0,76,75,2.1,4.67,['22 Nov 2020 21:55:58']
153,3942259,Coracora,PE,-15.03,-73.78,286.54,13.0,56.0,40,51,1.06,2.36,['22 Nov 2020 21:55:58']
154,3465329,Coruripe,BR,-10.13,-36.18,297.54,24.0,76.0,82,1,3.58,7.96,['22 Nov 2020 21:55:58']
155,3530103,San Miguel de Cozumel,MX,20.51,-86.95,300.15,27.0,81.0,74,40,3.6,8.0,['22 Nov 2020 21:55:58']
156,4012593,Creel,MX,27.75,-107.63,283.31,10.0,50.0,46,0,1.68,3.73,['22 Nov 2020 21:55:58']
157,3658666,Cuenca,EC,-2.88,-78.98,287.15,14.0,57.0,100,74,1.0,2.22,['22 Nov 2020 21:55:58']
158,3582228,Stann Creek Town,BZ,16.97,-88.23,297.0,24.0,75.0,93,100,0.89,1.98,['22 Nov 2020 21:55:58']
159,2361586,Dano,BF,11.15,-3.07,294.87,22.0,71.0,25,3,1.73,3.84,['22 Nov 2020 21:55:58']
160,721472,Debrecen,HU,47.53,21.63,274.15,1.0,34.0,100,75,1.5,3.33,['22 Nov 2020 21:55:58']
161,1645528,Denpasar,ID,-8.65,115.22,304.15,31.0,88.0,66,40,1.0,2.22,['22 Nov 2020 21:55:58']
162,566532,Derbent,RU,42.07,48.29,280.82,8.0,46.0,77,88,3.88,8.62,['22 Nov 2020 21:55:58']
163,7535694,Desbiens,CA,48.42,-71.95,268.15,-5.0,23.0,85,90,2.1,4.67,['22 Nov 2020 21:55:58']
164,3464724,Diamantino,BR,-14.41,-56.45,297.43,24.0,76.0,76,98,2.65,5.89,['22 Nov 2020 21:55:58']
165,2361342,Diébougou,BF,10.97,-3.25,294.74,22.0,71.0,27,13,1.62,3.6,['22 Nov 2020 21:55:58']
166,2445704,Diffa,NE,13.32,12.61,295.48,22.0,72.0,32,0,3.94,8.76,['22 Nov 2020 21:55:58']
167,1507390,Dikson,RU,73.51,80.55,259.54,-13.0,8.0,95,24,5.51,12.24,['22 Nov 2020 21:55:58']
168,1714733,Dingle,PH,11.0,122.67,299.49,26.0,79.0,88,97,7.29,16.2,['22 Nov 2020 21:55:58']
169,2260401,Djambala,CG,-2.54,14.75,292.61,19.0,67.0,99,100,1.23,2.73,['22 Nov 2020 21:55:58']
170,1272400,Dongargaon,IN,20.97,80.85,291.47,18.0,65.0,44,0,2.83,6.29,['22 Nov 2020 21:55:58']
171,2301400,Dunkwa,GH,5.97,-1.78,295.58,22.0,72.0,97,30,0.87,1.93,['22 Nov 2020 21:55:58']
172,3185728,Durrës,AL,41.32,19.44,276.15,3.0,37.0,86,0,2.1,4.67,['22 Nov 2020 21:55:58']
173,1272140,Dwārka,IN,22.24,68.97,296.79,24.0,75.0,45,0,2.15,4.78,['22 Nov 2020 21:55:58']
174,1006984,East London,ZA,-33.02,27.91,290.8,18.0,64.0,86,70,3.04,6.76,['22 Nov 2020 21:55:58']
175,2756429,Ede,NL,52.03,5.66,276.44,3.0,38.0,100,40,1.0,2.22,['22 Nov 2020 21:55:58']
176,2301217,Ejura,GH,7.39,-1.36,296.37,23.0,74.0,85,14,2.05,4.56,['22 Nov 2020 21:55:58']
177,3684683,El Carmen,CO,8.51,-73.45,293.91,21.0,69.0,91,85,1.34,2.98,['22 Nov 2020 21:55:58']
178,3641351,El Tigre,VE,8.89,-64.25,296.53,23.0,74.0,86,100,5.26,11.69,['22 Nov 2020 21:55:58']
179,1811720,Enshi,CN,30.3,109.48,279.24,6.0,43.0,83,100,1.43,3.18,['22 Nov 2020 21:55:58']
180,2071860,Esperance,AU,-33.87,121.9,297.15,24.0,75.0,31,1,3.6,8.0,['22 Nov 2020 21:55:58']
181,2260009,Ewo,CG,-0.87,14.82,294.73,22.0,71.0,94,100,2.72,6.04,['22 Nov 2020 21:55:58']
182,4034551,Faanui,PF,-16.48,-151.75,300.43,27.0,81.0,72,39,2.89,6.42,['22 Nov 2020 21:55:58']
183,110690,Faya,SA,18.39,42.45,282.64,9.0,49.0,28,0,0.73,1.62,['22 Nov 2020 21:55:58']
184,2444995,Filingué,NE,14.35,3.32,296.52,23.0,74.0,20,1,3.63,8.07,['22 Nov 2020 21:55:58']
185,5563839,Fortuna,US,40.6,-124.16,281.82,9.0,48.0,93,90,1.62,3.6,['22 Nov 2020 21:55:58']
186,2400547,Gamba,GA,-2.65,10.0,297.78,24.0,76.0,91,100,2.71,6.02,['22 Nov 2020 21:55:58']
187,2259947,Gamboma,CG,-1.88,15.86,294.87,22.0,71.0,96,100,1.17,2.6,['22 Nov 2020 21:55:58']
188,2457161,Gao,ML,16.64,1.64,291.61,18.0,65.0,26,0,1.45,3.22,['22 Nov 2020 21:55:58']
189,2577162,Gaoua,BF,10.3,-3.25,295.18,22.0,72.0,32,3,1.8,4.0,['22 Nov 2020 21:55:58']
190,3016701,Arrondissement de Gap,FR,44.67,6.0,276.48,3.0,38.0,67,0,1.79,3.98,['22 Nov 2020 21:55:58']
191,197745,Garissa,KE,-0.45,39.64,298.71,26.0,78.0,78,72,4.11,9.13,['22 Nov 2020 21:55:58']
192,58933,Garoowe,SO,8.41,48.48,296.29,23.0,74.0,70,97,4.04,8.98,['22 Nov 2020 21:55:58']
193,281133,Gaza,PS,31.5,34.47,288.75,16.0,60.0,82,0,1.5,3.33,['22 Nov 2020 21:55:58']
194,293842,Kiryat Gat,IL,31.61,34.76,287.2,14.0,57.0,93,0,0.96,2.13,['22 Nov 2020 21:55:58']
195,1735106,George Town,MY,5.41,100.34,301.75,28.0,83.0,83,20,2.6,5.78,['22 Nov 2020 21:55:58']
196,2070998,Geraldton,AU,-28.77,114.6,311.15,38.0,100.0,15,0,6.2,13.78,['22 Nov 2020 21:55:58']
197,561234,Glinka,RU,54.64,32.88,275.21,2.0,36.0,97,100,5.67,12.6,['22 Nov 2020 21:55:58']
198,3357247,Gobabis,NA,-22.45,18.97,290.15,17.0,63.0,72,0,0.5,1.11,['22 Nov 2020 21:55:58']
199,5962442,Goderich,CA,43.75,-81.72,274.26,1.0,34.0,94,100,0.45,1.0,['22 Nov 2020 21:55:58']
200,2340451,Gombe,NG,10.29,11.17,296.31,23.0,74.0,40,91,3.19,7.09,['22 Nov 2020 21:55:58']
201,2360372,Gorom-Gorom,BF,14.44,-0.24,293.0,20.0,68.0,24,1,1.58,3.51,['22 Nov 2020 21:55:58']
202,2456917,Goundam,ML,16.41,-3.67,295.61,22.0,72.0,22,13,4.49,9.98,['22 Nov 2020 21:55:58']
203,2288105,Grand-Lahou,CI,5.14,-5.02,298.56,26.0,78.0,86,9,3.28,7.29,['22 Nov 2020 21:55:58']
204,3381538,Grand-Santi,GF,4.25,-54.38,295.65,22.0,72.0,97,87,0.79,1.76,['22 Nov 2020 21:55:58']
205,3915350,Guayaramerín,BO,-10.84,-65.36,299.37,26.0,79.0,66,42,0.51,1.13,['22 Nov 2020 21:55:58']
206,1809597,Gucheng,CN,35.91,111.32,275.57,2.0,36.0,70,100,2.35,5.22,['22 Nov 2020 21:55:58']
207,4021858,Guerrero Negro,MX,27.98,-114.06,291.34,18.0,65.0,83,55,5.44,12.09,['22 Nov 2020 21:55:58']
208,2516860,Guía de Isora,ES,28.21,-16.78,293.64,21.0,69.0,40,0,5.1,11.33,['22 Nov 2020 21:55:58']
209,3461733,Guiratinga,BR,-16.35,-53.76,297.45,24.0,76.0,58,14,1.31,2.91,['22 Nov 2020 21:55:58']
210,1863495,Gushikawa,JP,26.35,127.87,295.04,22.0,71.0,88,90,6.2,13.78,['22 Nov 2020 21:55:58']
211,1177446,Gwadar,PK,25.12,62.33,296.11,23.0,73.0,68,0,0.83,1.84,['22 Nov 2020 21:55:58']
212,933734,Gweta,BW,-20.18,25.23,297.34,24.0,76.0,69,55,2.7,6.0,['22 Nov 2020 21:55:58']
213,1244926,Hambantota,LK,6.12,81.12,299.15,26.0,79.0,100,40,1.0,2.22,['22 Nov 2020 21:55:58']
214,1529484,Kumul,CN,42.8,93.45,269.82,-3.0,26.0,59,0,2.28,5.07,['22 Nov 2020 21:55:58']
215,4513583,Hamilton,US,39.18,-84.53,276.47,3.0,38.0,86,90,3.6,8.0,['22 Nov 2020 21:55:58']
216,335035,Harar,ET,9.31,42.13,285.14,12.0,54.0,63,31,3.05,6.78,['22 Nov 2020 21:55:58']
217,2647461,Harlow,GB,51.78,0.11,275.16,2.0,36.0,100,58,1.77,3.93,['22 Nov 2020 21:55:58']
218,2276492,Harper,LR,4.38,-7.72,298.64,26.0,78.0,86,100,3.03,6.73,['22 Nov 2020 21:55:58']
219,5972291,Havre-St-Pierre,CA,50.23,-63.6,266.15,-7.0,19.0,73,90,2.1,4.67,['22 Nov 2020 21:55:58']
220,3136765,Hegra,NO,63.46,11.11,277.29,4.0,39.0,80,90,12.9,28.67,['22 Nov 2020 21:55:58']
221,3356832,Henties Bay,NA,-22.12,14.28,287.59,14.0,58.0,90,5,0.89,1.98,['22 Nov 2020 21:55:58']
222,3366880,Hermanus,ZA,-34.42,19.23,288.15,15.0,59.0,89,92,1.68,3.73,['22 Nov 2020 21:55:58']
223,5855927,Hilo,US,19.73,-155.09,295.29,22.0,72.0,88,90,2.6,5.78,['22 Nov 2020 21:55:58']
224,1282256,Hithadhoo,MV,-0.6,73.08,301.15,28.0,82.0,72,100,2.51,5.58,['22 Nov 2020 21:55:58']
225,2163355,Hobart,AU,-42.88,147.33,291.73,18.0,65.0,63,75,8.7,19.33,['22 Nov 2020 21:55:58']
226,57000,Hobyo,SO,5.35,48.53,299.45,26.0,79.0,82,98,4.45,9.89,['22 Nov 2020 21:55:58']
227,3702269,Horconcitos,PA,8.47,-81.8,292.83,19.0,67.0,96,90,0.95,2.11,['22 Nov 2020 21:55:58']
228,627905,Horki,BY,54.29,30.98,274.53,1.0,34.0,92,75,6.09,13.53,['22 Nov 2020 21:55:58']
229,3372988,Horta,PT,38.53,-28.63,289.52,16.0,61.0,76,6,3.7,8.22,['22 Nov 2020 21:55:58']
230,3348313,Huambo,AO,-12.78,15.74,289.75,17.0,62.0,98,100,0.67,1.49,['22 Nov 2020 21:55:58']
231,3939168,Huarmey,PE,-10.07,-78.15,291.02,18.0,64.0,83,96,2.95,6.56,['22 Nov 2020 21:55:58']
232,2629833,Husavik,IS,66.04,-17.34,264.15,-9.0,16.0,92,0,4.3,9.56,['22 Nov 2020 21:55:58']
233,889942,Hwange,ZW,-18.37,26.5,297.2,24.0,75.0,67,51,0.32,0.71,['22 Nov 2020 21:55:58']
234,261814,Ierapetra,GR,35.01,25.74,289.26,16.0,61.0,65,3,5.3,11.78,['22 Nov 2020 21:55:58']
235,1505965,Igrim,RU,63.19,64.42,266.78,-6.0,21.0,91,11,4.48,9.96,['22 Nov 2020 21:55:58']
236,2338269,Ikirun,NG,7.92,4.67,293.82,21.0,69.0,96,96,1.12,2.49,['22 Nov 2020 21:55:58']
237,3461425,Ilhabela,BR,-23.78,-45.36,294.37,21.0,70.0,84,24,2.64,5.87,['22 Nov 2020 21:55:58']
238,2259655,Impfondo,CG,1.64,18.07,294.68,22.0,71.0,90,86,0.76,1.69,['22 Nov 2020 21:55:58']
239,159134,Inyonga,TZ,-6.72,32.07,291.7,18.0,65.0,91,29,1.2,2.67,['22 Nov 2020 21:55:58']
240,5983720,Iqaluit,CA,63.75,-68.51,266.04,-7.0,19.0,62,75,1.0,2.22,['22 Nov 2020 21:55:58']
241,3608828,Iralaya,HN,15.0,-83.23,299.2,26.0,79.0,86,100,1.35,3.0,['22 Nov 2020 21:55:58']
242,3461013,Irecê,BR,-11.3,-41.86,293.9,21.0,69.0,85,0,4.86,10.8,['22 Nov 2020 21:55:58']
243,196231,Isiolo,KE,0.35,37.58,292.02,19.0,66.0,75,58,1.79,3.98,['22 Nov 2020 21:55:58']
244,3397967,Itaituba,BR,-4.28,-55.98,296.08,23.0,73.0,98,100,0.96,2.13,['22 Nov 2020 21:55:58']
245,3393692,Itarema,BR,-2.92,-39.92,299.4,26.0,79.0,79,24,5.74,12.76,['22 Nov 2020 21:55:58']
246,3397763,Jacareacanga,BR,-6.22,-57.75,296.18,23.0,73.0,97,100,1.37,3.04,['22 Nov 2020 21:55:58']
247,86049,Jalu,LY,29.03,21.55,288.16,15.0,59.0,46,99,4.23,9.4,['22 Nov 2020 21:55:58']
248,5122534,Jamestown,US,42.1,-79.24,279.8,7.0,44.0,100,90,3.1,6.89,['22 Nov 2020 21:55:58']
249,3460148,Januária,BR,-15.48,-44.37,293.71,21.0,69.0,88,77,2.2,4.89,['22 Nov 2020 21:55:58']
250,1642773,Japura,ID,-0.32,102.35,300.41,27.0,81.0,78,98,1.58,3.51,['22 Nov 2020 21:55:58']
251,3913271,Jorochito,BO,-18.05,-63.43,299.15,26.0,79.0,74,0,2.1,4.67,['22 Nov 2020 21:55:58']
252,2335953,Jos,NG,9.92,8.9,291.04,18.0,64.0,50,100,1.06,2.36,['22 Nov 2020 21:55:58']
253,373303,Juba,SS,4.85,31.58,298.48,26.0,78.0,53,67,0.83,1.84,['22 Nov 2020 21:55:58']
254,2894342,Kade,DE,52.38,12.27,278.7,6.0,42.0,82,87,0.89,1.98,['22 Nov 2020 21:55:58']
255,2335727,Kaduna,NG,10.52,7.44,293.96,21.0,69.0,42,100,2.7,6.0,['22 Nov 2020 21:55:58']
256,5847411,Kahului,US,20.89,-156.47,296.08,23.0,73.0,74,40,10.8,24.0,['22 Nov 2020 21:55:58']
257,1268561,Kākināda,IN,16.93,82.22,299.15,26.0,79.0,83,75,2.1,4.67,['22 Nov 2020 21:55:58']
258,915285,Kalengwa,ZM,-13.47,25.0,290.45,17.0,63.0,95,98,0.87,1.93,['22 Nov 2020 21:55:58']
259,214614,Kamina,CD,-8.74,24.99,290.37,17.0,63.0,92,100,0.76,1.69,['22 Nov 2020 21:55:58']
260,214575,Kampene,CD,-3.6,26.67,293.63,21.0,69.0,96,90,0.62,1.38,['22 Nov 2020 21:55:58']
261,1268020,Kannad,IN,20.27,75.13,294.57,22.0,71.0,55,0,2.84,6.31,['22 Nov 2020 21:55:58']
262,1268008,Kanniyākumāri,IN,8.08,77.57,299.52,26.0,79.0,62,17,4.51,10.02,['22 Nov 2020 21:55:58']
263,933685,Kanye,BW,-24.97,25.33,289.89,17.0,62.0,99,10,4.01,8.91,['22 Nov 2020 21:55:58']
264,5848280,Kapaa,US,22.08,-159.32,298.58,26.0,78.0,74,90,7.2,16.0,['22 Nov 2020 21:55:58']
265,1504382,Kargasok,RU,59.06,80.86,263.19,-10.0,14.0,97,42,1.9,4.22,['22 Nov 2020 21:55:58']
266,6620339,Karratha,AU,-20.74,116.85,305.6,32.0,90.0,48,6,6.42,14.27,['22 Nov 2020 21:55:58']
267,912764,Kasama,ZM,-10.21,31.18,292.28,19.0,66.0,83,49,2.21,4.91,['22 Nov 2020 21:55:58']
268,2315026,Kasongo-Lunda,CD,-6.47,16.82,293.58,21.0,69.0,93,91,0.56,1.24,['22 Nov 2020 21:55:58']
269,2112309,Katsuura,JP,35.13,140.3,292.07,19.0,66.0,42,20,7.2,16.0,['22 Nov 2020 21:55:58']
270,1267390,Kavaratti,IN,10.57,72.64,301.23,28.0,83.0,65,79,3.98,8.84,['22 Nov 2020 21:55:58']
271,730518,Kavarna,BG,43.43,28.33,272.16,-1.0,30.0,86,0,0.5,1.11,['22 Nov 2020 21:55:58']
272,2094342,Kavieng,PG,-2.57,150.8,302.6,29.0,85.0,65,95,4.33,9.62,['22 Nov 2020 21:55:58']
273,2359608,Kaya,BF,13.09,-1.08,294.35,21.0,70.0,22,4,3.2,7.11,['22 Nov 2020 21:55:58']
274,2645889,Keighley,GB,53.87,-1.91,277.06,4.0,39.0,93,22,0.89,1.98,['22 Nov 2020 21:55:58']
275,1266931,Khargāpur,IN,24.82,79.14,290.08,17.0,62.0,33,0,0.65,1.44,['22 Nov 2020 21:55:58']
276,933633,Khudumelapye,BW,-23.88,24.75,294.95,22.0,71.0,72,0,4.59,10.2,['22 Nov 2020 21:55:58']
277,2425791,Kibala,TD,9.11,18.35,293.15,20.0,68.0,82,0,0.99,2.2,['22 Nov 2020 21:55:58']
278,2455290,Kidal,ML,18.44,1.41,291.33,18.0,65.0,27,0,4.93,10.96,['22 Nov 2020 21:55:58']
279,1842966,Gijang,KR,35.24,129.21,282.15,9.0,48.0,39,0,5.7,12.67,['22 Nov 2020 21:55:58']
280,2314705,Kikwit,CD,-5.04,18.82,294.56,22.0,71.0,94,95,0.77,1.71,['22 Nov 2020 21:55:58']
281,157429,Kilindoni,TZ,-7.91,39.67,299.86,27.0,80.0,77,19,2.95,6.56,['22 Nov 2020 21:55:58']
282,2963218,Kilrush,IE,52.64,-9.48,278.41,5.0,41.0,86,40,4.6,10.22,['22 Nov 2020 21:55:58']
283,2093967,Kimbe,PG,-5.55,150.14,304.89,32.0,89.0,52,14,2.66,5.91,['22 Nov 2020 21:55:58']
284,212902,Kindu,CD,-2.95,25.95,293.62,21.0,69.0,95,74,0.41,0.91,['22 Nov 2020 21:55:58']
285,2161376,Kingaroy,AU,-26.53,151.83,303.15,30.0,86.0,23,0,4.6,10.22,['22 Nov 2020 21:55:58']
286,2299625,Kintampo,GH,8.06,-1.73,296.68,23.0,74.0,72,0,1.8,4.0,['22 Nov 2020 21:55:58']
287,212730,Kisangani,CD,0.52,25.2,294.84,22.0,71.0,91,100,0.83,1.84,['22 Nov 2020 21:55:58']
288,55671,Kismayo,SO,-0.36,42.55,299.4,26.0,79.0,84,22,4.33,9.62,['22 Nov 2020 21:55:58']
289,259718,Kissamos,GR,35.49,23.66,288.27,15.0,59.0,87,75,1.0,2.22,['22 Nov 2020 21:55:58']
290,2618795,Klaksvík,FO,62.23,-6.59,277.15,4.0,39.0,86,25,2.6,5.78,['22 Nov 2020 21:55:58']
291,988698,Knysna,ZA,-34.04,23.05,287.15,14.0,57.0,93,90,1.5,3.33,['22 Nov 2020 21:55:58']
292,2359317,Kokologo,BF,12.19,-1.89,295.15,22.0,72.0,35,0,1.5,3.33,['22 Nov 2020 21:55:58']
293,865084,Kosice,SK,48.67,21.33,272.87,-1.0,31.0,97,90,3.6,8.0,['22 Nov 2020 21:55:58']
294,230617,Kotido,UG,2.98,34.13,294.79,22.0,71.0,51,0,4.31,9.58,['22 Nov 2020 21:55:58']
295,3381303,Kourou,GF,5.16,-52.65,297.15,24.0,75.0,100,75,2.94,6.53,['22 Nov 2020 21:55:58']
296,2365560,Palimé,TG,6.9,0.63,295.86,23.0,73.0,87,90,0.91,2.02,['22 Nov 2020 21:55:58']
297,986717,Kruisfontein,ZA,-34.0,24.73,288.71,16.0,60.0,95,76,0.89,1.98,['22 Nov 2020 21:55:58']
298,1501690,Krutinka,RU,56.01,71.51,263.19,-10.0,14.0,93,18,1.63,3.62,['22 Nov 2020 21:55:58']
299,1152562,Kui Buri,TH,12.08,99.85,302.15,29.0,84.0,79,20,2.1,4.67,['22 Nov 2020 21:55:58']
300,1337613,Kulhudhuffushi,MV,6.62,73.07,301.09,28.0,82.0,69,2,4.18,9.29,['22 Nov 2020 21:55:58']
301,2229752,Kumba,CM,4.64,9.45,295.45,22.0,72.0,94,99,0.23,0.51,['22 Nov 2020 21:55:58']
302,2057087,Kupang,ID,-10.17,123.58,307.15,34.0,93.0,56,40,2.6,5.78,['22 Nov 2020 21:55:58']
303,371745,Kutum,SD,14.2,24.67,285.88,13.0,55.0,39,19,1.76,3.91,['22 Nov 2020 21:55:58']
304,5364022,La Palma,US,33.85,-118.05,288.02,15.0,59.0,77,20,2.16,4.8,['22 Nov 2020 21:55:58']
305,156098,Laela,TZ,-8.57,32.05,290.78,18.0,64.0,89,0,0.85,1.89,['22 Nov 2020 21:55:58']
306,3372964,Lagoa,PT,39.05,-27.98,289.73,17.0,62.0,75,64,4.03,8.96,['22 Nov 2020 21:55:58']
307,5364271,Laguna,US,38.42,-121.42,284.21,11.0,52.0,62,1,1.73,3.84,['22 Nov 2020 21:55:58']
308,6201197,Muhafazat Lahij,YE,13.17,44.58,294.12,21.0,70.0,90,26,0.36,0.8,['22 Nov 2020 21:55:58']
309,332288,Lalibela,ET,12.03,39.03,279.93,7.0,44.0,57,21,0.16,0.36,['22 Nov 2020 21:55:58']
310,3007608,Arrondissement de Lannion,FR,48.75,-3.42,284.15,11.0,52.0,93,90,3.1,6.89,['22 Nov 2020 21:55:58']
311,3175096,Laas,IT,46.62,10.7,273.15,0.0,32.0,49,5,3.1,6.89,['22 Nov 2020 21:55:58']
312,2399870,Lastoursville,GA,-0.81,12.73,295.25,22.0,72.0,93,100,0.57,1.27,['22 Nov 2020 21:55:58']
313,2738381,Lata,PT,40.16,-8.33,281.88,9.0,48.0,100,76,1.0,2.22,['22 Nov 2020 21:55:58']
314,935051,Lavumisa,SZ,-27.31,31.89,293.91,21.0,69.0,89,100,1.11,2.47,['22 Nov 2020 21:55:58']
315,3883457,Lebu,CL,-37.62,-73.65,284.23,11.0,52.0,90,0,1.38,3.07,['22 Nov 2020 21:55:58']
316,2644605,Lerwick,GB,60.15,-1.15,281.15,8.0,46.0,75,99,9.3,20.67,['22 Nov 2020 21:55:58']
317,3379316,Lethem,GY,3.38,-59.8,296.71,23.0,74.0,89,100,0.74,1.64,['22 Nov 2020 21:55:58']
318,1043893,Lichinga,MZ,-13.31,35.24,292.09,19.0,66.0,72,0,4.6,10.22,['22 Nov 2020 21:55:58']
319,3936456,Lima,PE,-12.04,-77.03,289.98,17.0,62.0,82,0,5.7,12.67,['22 Nov 2020 21:55:58']
320,2249281,Linguère,SN,15.4,-15.12,298.97,26.0,78.0,18,45,4.49,9.98,['22 Nov 2020 21:55:58']
321,258175,Lixouri,GR,38.2,20.43,287.43,14.0,58.0,70,100,2.56,5.69,['22 Nov 2020 21:55:58']
322,211647,Lodja,CD,-3.48,23.43,293.98,21.0,69.0,98,100,0.69,1.53,['22 Nov 2020 21:55:58']
323,5367788,Lompoc,US,34.64,-120.46,283.82,11.0,51.0,87,1,4.6,10.22,['22 Nov 2020 21:55:58']
324,1171868,Loralai,PK,30.37,68.6,281.09,8.0,46.0,50,29,0.79,1.76,['22 Nov 2020 21:55:58']
325,2092164,Lorengau,PG,-2.02,147.27,303.29,30.0,86.0,60,100,3.71,8.24,['22 Nov 2020 21:55:58']
326,2514651,Los Llanos de Aridane,ES,28.66,-17.92,292.47,19.0,67.0,72,0,4.1,9.11,['22 Nov 2020 21:55:58']
327,2240449,Luanda,AO,-8.84,13.23,299.15,26.0,79.0,83,75,3.1,6.89,['22 Nov 2020 21:55:58']
328,2309528,Luba,GQ,3.46,8.55,297.15,24.0,75.0,100,20,2.1,4.67,['22 Nov 2020 21:55:58']
329,1705441,Lubao,PH,14.92,120.55,303.15,30.0,86.0,55,40,5.1,11.33,['22 Nov 2020 21:55:58']
330,145724,Lucapa,AO,-8.42,20.74,291.6,18.0,65.0,99,100,1.1,2.44,['22 Nov 2020 21:55:58']
331,3489657,Lucea,JM,18.45,-78.17,298.61,26.0,78.0,88,75,0.5,1.11,['22 Nov 2020 21:55:58']
332,3355672,Lüderitz,NA,-26.65,15.16,287.15,14.0,57.0,87,9,3.6,8.0,['22 Nov 2020 21:55:58']
333,210939,Luebo,CD,-5.35,21.42,293.96,21.0,69.0,94,95,0.56,1.24,['22 Nov 2020 21:55:58']
334,3458333,Luz,BR,-19.8,-45.69,293.21,20.0,68.0,89,0,1.89,4.2,['22 Nov 2020 21:55:58']
335,3395981,Maceió,BR,-9.67,-35.74,296.15,23.0,73.0,94,40,1.0,2.22,['22 Nov 2020 21:55:58']
336,2091996,Madang,PG,-5.22,145.8,303.24,30.0,86.0,64,78,3.23,7.18,['22 Nov 2020 21:55:58']
337,1264514,Māgadi,IN,12.97,77.23,293.85,21.0,69.0,72,20,3.1,6.89,['22 Nov 2020 21:55:58']
338,934322,Mahébourg,MU,-20.41,57.7,296.15,23.0,73.0,83,75,4.1,9.11,['22 Nov 2020 21:55:58']
339,1337605,Mahibadhoo,MV,3.78,72.97,301.02,28.0,82.0,74,50,3.9,8.67,['22 Nov 2020 21:55:58']
340,1636806,Majene,ID,-3.54,118.97,302.55,29.0,85.0,69,100,0.92,2.04,['22 Nov 2020 21:55:58']
341,2399371,Makokou,GA,0.57,12.86,293.49,21.0,69.0,97,92,1.31,2.91,['22 Nov 2020 21:55:58']
342,370737,Malakal,SS,9.53,31.66,296.37,23.0,74.0,27,0,3.18,7.07,['22 Nov 2020 21:55:58']
343,2239862,Malanje,AO,-9.54,16.34,291.03,18.0,64.0,99,100,1.67,3.71,['22 Nov 2020 21:55:58']
344,187968,Malindi,KE,-3.22,40.12,298.98,26.0,78.0,85,52,3.13,6.96,['22 Nov 2020 21:55:58']
345,1263997,Mahabalipuram,IN,12.63,80.17,301.15,28.0,82.0,83,75,1.0,2.22,['22 Nov 2020 21:55:58']
346,2417831,Mamou,GN,10.5,-12.0,292.24,19.0,66.0,50,16,0.81,1.8,['22 Nov 2020 21:55:58']
347,290340,Manama,BH,26.22,50.58,295.15,22.0,72.0,68,0,7.2,16.0,['22 Nov 2020 21:55:58']
348,3663516,Mâncio Lima,BR,-7.61,-72.9,296.61,23.0,74.0,89,45,0.95,2.11,['22 Nov 2020 21:55:58']
349,187896,Mandera,KE,3.94,41.87,298.47,26.0,78.0,72,99,3.54,7.87,['22 Nov 2020 21:55:58']
350,2313084,Mangai,CD,-4.05,19.53,294.43,21.0,70.0,96,100,0.43,0.96,['22 Nov 2020 21:55:58']
351,1263776,Mangan,IN,27.52,88.53,291.74,18.0,65.0,27,0,1.32,2.93,['22 Nov 2020 21:55:58']
352,1636426,Manggar,ID,-2.88,108.27,303.45,31.0,87.0,62,97,0.66,1.47,['22 Nov 2020 21:55:58']
353,3663503,Manicoré,BR,-5.81,-61.3,296.96,24.0,75.0,96,40,0.98,2.18,['22 Nov 2020 21:55:58']
354,3421982,Maniitsoq,GL,65.42,-52.9,267.46,-6.0,22.0,90,100,4.39,9.76,['22 Nov 2020 21:55:58']
355,1263622,Mānsa,IN,29.98,75.38,290.1,17.0,63.0,28,39,0.75,1.67,['22 Nov 2020 21:55:58']
356,2514190,Manzanares,ES,39.0,-3.37,277.04,4.0,39.0,93,0,1.91,4.24,['22 Nov 2020 21:55:58']
357,3430863,Mar del Plata,AR,-38.0,-57.56,291.84,19.0,66.0,77,0,3.6,8.0,['22 Nov 2020 21:55:58']
358,3663475,Maraã,BR,-1.83,-65.37,296.57,23.0,74.0,82,34,0.74,1.64,['22 Nov 2020 21:55:58']
359,3395458,Maragogi,BR,-9.01,-35.22,297.27,24.0,75.0,81,46,2.64,5.87,['22 Nov 2020 21:55:58']
360,1701054,Marawi,PH,8.0,124.29,299.72,27.0,80.0,73,100,1.9,4.22,['22 Nov 2020 21:55:58']
361,3092472,Malbork,PL,54.04,19.03,277.59,4.0,40.0,100,100,6.52,14.49,['22 Nov 2020 21:55:58']
362,886990,Marondera,ZW,-18.19,31.55,289.48,16.0,61.0,75,0,1.88,4.18,['22 Nov 2020 21:55:58']
363,2542997,Marrakesh,MA,31.63,-8.01,286.15,13.0,55.0,58,0,1.5,3.33,['22 Nov 2020 21:55:58']
364,3571913,Marsh Harbour,BS,26.54,-77.06,298.0,25.0,77.0,80,0,5.61,12.47,['22 Nov 2020 21:55:58']
365,3173857,Martano,IT,40.2,18.3,284.23,11.0,52.0,81,40,3.6,8.0,['22 Nov 2020 21:55:58']
366,6067472,Marystown,CA,47.17,-55.15,270.93,-2.0,28.0,100,1,1.98,4.4,['22 Nov 2020 21:55:58']
367,72181,Marzuq,YE,14.4,46.47,289.27,16.0,61.0,38,24,0.79,1.76,['22 Nov 2020 21:55:58']
368,932505,Maseru,LS,-29.32,27.48,288.12,15.0,59.0,88,19,2.33,5.18,['22 Nov 2020 21:55:58']
369,4866445,Mason City,US,43.15,-93.2,273.69,1.0,33.0,80,1,6.7,14.89,['22 Nov 2020 21:55:58']
370,1235846,Matara,LK,5.95,80.54,299.8,27.0,80.0,80,97,1.26,2.8,['22 Nov 2020 21:55:58']
371,6201424,Mataura,NZ,-46.19,168.86,288.15,15.0,59.0,54,99,1.34,2.98,['22 Nov 2020 21:55:58']
372,154576,Matonga,TZ,-2.38,34.08,290.68,18.0,64.0,93,5,1.64,3.64,['22 Nov 2020 21:55:58']
373,2409215,Mattru,SL,7.62,-11.83,296.24,23.0,74.0,94,50,0.71,1.58,['22 Nov 2020 21:55:58']
374,933366,Maun,BW,-19.98,23.42,296.31,23.0,74.0,74,86,2.1,4.67,['22 Nov 2020 21:55:58']
375,2399001,Mayumba,GA,-3.43,10.66,298.11,25.0,77.0,90,100,2.71,6.02,['22 Nov 2020 21:55:58']
376,6541759,Mazara del Vallo,IT,37.66,12.59,284.99,12.0,53.0,87,0,1.0,2.22,['22 Nov 2020 21:55:58']
377,2312895,Mbandaka,CD,0.05,18.26,295.0,22.0,71.0,96,96,1.29,2.87,['22 Nov 2020 21:55:58']
378,878006,Mbekenyera,TZ,-10.0,38.98,294.16,21.0,70.0,95,41,0.97,2.16,['22 Nov 2020 21:55:58']
379,154380,Mbeya,TZ,-8.9,33.45,289.15,16.0,61.0,87,20,1.89,4.2,['22 Nov 2020 21:55:58']
380,2308278,Mbini,GQ,1.57,9.61,298.82,26.0,78.0,87,100,2.72,6.04,['22 Nov 2020 21:55:58']
381,124291,Mehrān,IR,33.12,46.16,278.15,5.0,41.0,86,0,2.1,4.67,['22 Nov 2020 21:55:58']
382,3347353,Menongue,AO,-14.66,17.69,291.11,18.0,64.0,91,100,1.32,2.93,['22 Nov 2020 21:55:58']
383,2082539,Merauke,ID,-8.47,140.33,302.39,29.0,85.0,76,18,5.76,12.8,['22 Nov 2020 21:55:58']
384,1732826,Mersing,MY,2.43,103.84,297.15,24.0,75.0,100,40,1.0,2.22,['22 Nov 2020 21:55:58']
385,1214488,Meulaboh,ID,4.14,96.13,298.31,25.0,77.0,74,99,2.39,5.31,['22 Nov 2020 21:55:58']
386,1059051,Miandrivazo,MG,-19.52,45.47,299.55,27.0,80.0,73,19,0.14,0.31,['22 Nov 2020 21:55:58']
387,153955,Micheweni,TZ,-4.97,39.83,299.26,26.0,79.0,81,32,2.31,5.13,['22 Nov 2020 21:55:58']
388,2330100,Minna,NG,9.61,6.56,296.0,23.0,73.0,41,100,1.88,4.18,['22 Nov 2020 21:55:58']
389,3674702,Miranda,CO,3.25,-76.23,297.15,24.0,75.0,69,40,5.7,12.67,['22 Nov 2020 21:55:58']
390,921786,Mitsamiouli,KM,-11.38,43.28,300.17,27.0,81.0,79,2,5.17,11.49,['22 Nov 2020 21:55:58']
391,3674676,Mitú,CO,1.2,-70.17,296.08,23.0,73.0,97,100,0.53,1.18,['22 Nov 2020 21:55:58']
392,2398283,Mitzic,GA,0.78,11.55,292.49,19.0,67.0,100,66,1.17,2.6,['22 Nov 2020 21:55:58']
393,330534,Mīzan Teferī,ET,6.98,35.58,289.45,16.0,61.0,84,0,1.27,2.82,['22 Nov 2020 21:55:58']
394,153384,Mlimba,TZ,-8.8,35.82,295.89,23.0,73.0,86,12,1.15,2.56,['22 Nov 2020 21:55:58']
395,975436,Mmabatho,ZA,-25.85,25.63,291.15,18.0,64.0,68,6,4.6,10.22,['22 Nov 2020 21:55:58']
396,1024312,Mocuba,MZ,-16.84,36.99,295.19,22.0,72.0,86,36,1.57,3.49,['22 Nov 2020 21:55:58']
397,53654,Mogadishu,SO,2.04,45.34,299.46,26.0,79.0,81,42,4.54,10.09,['22 Nov 2020 21:55:58']
398,2427637,Mongo,TD,12.18,18.69,296.48,23.0,74.0,29,92,2.62,5.82,['22 Nov 2020 21:55:58']
399,2274895,Monrovia,LR,6.3,-10.8,297.15,24.0,75.0,94,20,1.8,4.0,['22 Nov 2020 21:55:58']
400,3394605,Monte Alegre,BR,-2.01,-54.07,296.53,23.0,74.0,94,99,0.72,1.6,['22 Nov 2020 21:55:58']
401,906044,Monze,ZM,-16.28,27.48,294.3,21.0,70.0,70,44,0.76,1.69,['22 Nov 2020 21:55:58']
402,5374920,Morro Bay,US,35.37,-120.85,284.77,12.0,53.0,92,0,0.45,1.0,['22 Nov 2020 21:55:58']
403,2156643,Mount Gambier,AU,-37.83,140.77,291.15,18.0,64.0,68,90,7.2,16.0,['22 Nov 2020 21:55:58']
404,2065594,Mount Isa,AU,-20.73,139.5,311.15,38.0,100.0,12,0,5.1,11.33,['22 Nov 2020 21:55:58']
405,2265686,Moura,PT,38.14,-7.45,283.15,10.0,50.0,93,0,2.6,5.78,['22 Nov 2020 21:55:58']
406,186180,Moyale,KE,3.52,39.06,292.07,19.0,66.0,72,36,1.37,3.04,['22 Nov 2020 21:55:58']
407,152663,Mugumu,TZ,-1.85,34.7,289.43,16.0,61.0,93,3,1.98,4.4,['22 Nov 2020 21:55:58']
408,3653967,Muisne,EC,0.6,-80.03,296.15,23.0,73.0,84,89,2.61,5.8,['22 Nov 2020 21:55:58']
409,1337617,Muli,MV,2.92,73.57,300.76,28.0,82.0,71,14,1.54,3.42,['22 Nov 2020 21:55:58']
410,2297810,Mumford,GH,5.26,-0.76,298.77,26.0,78.0,85,36,3.53,7.84,['22 Nov 2020 21:55:58']
411,3115824,Muros,ES,42.78,-9.06,281.51,8.0,47.0,93,15,1.0,2.22,['22 Nov 2020 21:55:58']
412,902620,Mwinilunga,ZM,-11.74,24.43,289.71,17.0,62.0,93,93,0.31,0.69,['22 Nov 2020 21:55:58']
413,152042,Naberera,TZ,-4.2,36.93,291.45,18.0,65.0,91,87,2.67,5.93,['22 Nov 2020 21:55:58']
414,3347019,Mossamedes,AO,-15.2,12.15,292.8,19.0,67.0,77,40,3.16,7.02,['22 Nov 2020 21:55:58']
415,1033356,Nampula,MZ,-15.12,39.27,294.53,21.0,70.0,92,0,1.1,2.44,['22 Nov 2020 21:55:58']
416,3421765,Nanortalik,GL,60.14,-45.24,272.39,-1.0,31.0,91,91,8.85,19.67,['22 Nov 2020 21:55:58']
417,4944903,Nantucket,US,41.28,-70.1,284.15,11.0,52.0,76,90,8.7,19.33,['22 Nov 2020 21:55:58']
418,1855612,Nara,JP,34.69,135.8,290.12,17.0,63.0,63,75,5.7,12.67,['22 Nov 2020 21:55:58']
419,2392601,Natitingou,BJ,10.3,1.38,295.46,22.0,72.0,39,4,1.89,4.2,['22 Nov 2020 21:55:58']
420,2397674,Ndjolé,GA,-0.18,10.76,296.96,24.0,75.0,95,100,1.08,2.4,['22 Nov 2020 21:55:58']
421,3430443,Necochea,AR,-38.55,-58.74,295.37,22.0,72.0,61,88,9.36,20.8,['22 Nov 2020 21:55:58']
422,2513240,Nerja,ES,36.76,-3.89,284.11,11.0,52.0,76,0,0.89,1.98,['22 Nov 2020 21:55:58']
423,3843123,Neuquén,AR,-38.95,-68.06,293.15,20.0,68.0,56,0,1.0,2.22,['22 Nov 2020 21:55:58']
424,2155415,New Norfolk,AU,-42.78,147.06,292.15,19.0,66.0,58,68,0.45,1.0,['22 Nov 2020 21:55:58']
425,4589207,Newberry,US,34.27,-81.62,286.5,13.0,56.0,98,100,1.64,3.64,['22 Nov 2020 21:55:58']
426,2616504,Nexø,DK,55.06,15.13,282.15,9.0,48.0,81,100,11.8,26.22,['22 Nov 2020 21:55:58']
427,2224827,Ngaoundéré,CM,7.32,13.58,292.29,19.0,66.0,50,95,1.3,2.89,['22 Nov 2020 21:55:58']
428,151610,Ngorongoro,TZ,-3.24,35.49,284.89,12.0,53.0,100,16,1.21,2.69,['22 Nov 2020 21:55:58']
429,2364812,Niamtougou,TG,9.77,1.11,295.18,22.0,72.0,45,9,1.03,2.29,['22 Nov 2020 21:55:58']
430,2311968,Nioki,CD,-2.72,17.68,295.0,22.0,71.0,98,98,1.11,2.47,['22 Nov 2020 21:55:58']
431,2412408,Nioro,GM,13.35,-15.75,296.12,23.0,73.0,71,27,2.06,4.58,['22 Nov 2020 21:55:58']
432,286987,Nizwá,OM,22.93,57.53,289.62,17.0,62.0,59,0,0.06,0.13,['22 Nov 2020 21:55:58']
433,2259383,Nkayi,CG,-4.18,13.29,296.33,23.0,74.0,95,100,1.2,2.67,['22 Nov 2020 21:55:58']
434,2377457,Nouadhibou,MR,20.93,-17.03,295.15,22.0,72.0,56,100,4.6,10.22,['22 Nov 2020 21:55:58']
435,2377450,Nouakchott,MR,18.09,-15.98,296.15,23.0,73.0,23,1,4.1,9.11,['22 Nov 2020 21:55:58']
436,3172170,Novi Ligure,IT,44.76,8.79,274.79,2.0,35.0,90,62,0.89,1.98,['22 Nov 2020 21:55:58']
437,3663142,Novo Aripuanã,BR,-5.12,-60.38,296.22,23.0,74.0,97,30,1.16,2.58,['22 Nov 2020 21:55:58']
438,518585,Novomikhaylovskiy,RU,44.26,38.86,275.86,3.0,37.0,80,26,1.3,2.89,['22 Nov 2020 21:55:58']
439,3373652,Oistins,BB,13.07,-59.53,298.15,25.0,77.0,83,75,10.3,22.89,['22 Nov 2020 21:55:58']
440,515805,Oktyabr'skoye,RU,43.06,44.74,272.15,-1.0,30.0,100,100,5.0,11.11,['22 Nov 2020 21:55:58']
441,3414079,Olafsvik,IS,64.89,-23.71,275.32,2.0,36.0,87,54,4.91,10.91,['22 Nov 2020 21:55:58']
442,3393536,Olinda,BR,-8.01,-34.86,298.15,25.0,77.0,73,40,3.6,8.0,['22 Nov 2020 21:55:58']
443,2396853,Omboué,GA,-1.57,9.26,297.82,24.0,76.0,92,99,2.95,6.56,['22 Nov 2020 21:55:58']
444,3354077,Opuwo,NA,-18.06,13.84,293.96,21.0,69.0,30,2,1.25,2.78,['22 Nov 2020 21:55:58']
445,3354071,Oranjemund,NA,-28.55,16.43,287.94,15.0,59.0,90,38,2.73,6.07,['22 Nov 2020 21:55:58']
446,3393471,Oriximiná,BR,-1.77,-55.87,296.84,24.0,75.0,92,84,0.77,1.71,['22 Nov 2020 21:55:58']
447,556268,Ostrovnoy,RU,68.05,39.51,274.9,2.0,35.0,86,98,10.34,22.98,['22 Nov 2020 21:55:58']
448,236901,Ouadda,CF,8.08,22.4,294.08,21.0,70.0,32,100,2.33,5.18,['22 Nov 2020 21:55:58']
449,2357012,Ouargaye,BF,11.5,0.06,295.69,23.0,73.0,23,0,3.53,7.84,['22 Nov 2020 21:55:58']
450,2255564,Ouésso,CG,1.61,16.05,294.66,22.0,71.0,96,100,1.13,2.51,['22 Nov 2020 21:55:58']
451,2246901,Oussouye,SN,12.48,-16.55,298.58,26.0,78.0,79,61,3.32,7.38,['22 Nov 2020 21:55:58']
452,2255542,Owando,CG,-0.48,15.9,294.59,22.0,71.0,99,100,1.11,2.47,['22 Nov 2020 21:55:58']
453,2325330,Owerri,NG,5.48,7.03,299.15,26.0,79.0,94,20,1.52,3.38,['22 Nov 2020 21:55:58']
454,3421193,Paamiut,GL,61.99,-49.67,270.25,-3.0,27.0,94,100,13.35,29.67,['22 Nov 2020 21:55:58']
455,1633419,Padang,ID,-0.95,100.35,300.5,27.0,81.0,74,100,0.91,2.02,['22 Nov 2020 21:55:58']
456,146214,Paphos,CY,34.77,32.42,285.82,13.0,55.0,82,40,2.6,5.78,['22 Nov 2020 21:55:58']
457,3694112,Paita,PE,-5.09,-81.11,290.86,18.0,64.0,80,3,4.59,10.2,['22 Nov 2020 21:55:58']
458,256155,Palekastro,GR,35.2,26.25,289.26,16.0,61.0,65,16,8.36,18.58,['22 Nov 2020 21:55:58']
459,3393264,Palmares,BR,-8.68,-35.59,294.94,22.0,71.0,88,67,0.18,0.4,['22 Nov 2020 21:55:58']
460,1633034,Palu,ID,-0.89,119.87,304.52,31.0,88.0,55,99,1.13,2.51,['22 Nov 2020 21:55:58']
461,1695546,Pandan,PH,14.05,124.17,301.15,28.0,82.0,69,100,7.71,17.13,['22 Nov 2020 21:55:58']
462,6096551,Pangnirtung,CA,66.15,-65.71,256.77,-16.0,3.0,72,80,2.91,6.47,['22 Nov 2020 21:55:58']
463,3455168,Paracatu,BR,-17.22,-46.87,293.48,21.0,69.0,93,1,2.34,5.2,['22 Nov 2020 21:55:58']
464,3393115,Paracuru,BR,-3.41,-39.03,300.37,27.0,81.0,76,2,8.94,19.87,['22 Nov 2020 21:55:58']
465,3455049,Paranhos,BR,-23.89,-55.43,293.58,21.0,69.0,51,0,1.34,2.98,['22 Nov 2020 21:55:58']
466,4440397,Pascagoula,US,30.37,-88.56,288.02,15.0,59.0,87,1,2.86,6.36,['22 Nov 2020 21:55:58']
467,3662927,Pauini,BR,-7.71,-66.98,297.57,24.0,76.0,84,58,0.69,1.53,['22 Nov 2020 21:55:58']
468,3495137,Pedernales,DO,18.04,-71.74,298.81,26.0,78.0,74,26,0.95,2.11,['22 Nov 2020 21:55:58']
469,1028918,Pemba,MZ,-12.97,40.52,298.15,25.0,77.0,88,75,1.5,3.33,['22 Nov 2020 21:55:58']
470,2264923,Peniche,PT,39.36,-9.38,283.71,11.0,51.0,90,11,2.13,4.73,['22 Nov 2020 21:55:58']
471,2640377,Penzance,GB,50.12,-5.54,279.15,6.0,43.0,100,55,1.5,3.33,['22 Nov 2020 21:55:58']
472,3454005,Piaçabuçu,BR,-10.41,-36.43,297.57,24.0,76.0,81,0,3.46,7.69,['22 Nov 2020 21:55:58']
473,3392225,Piancó,BR,-7.2,-37.93,299.86,27.0,80.0,56,7,3.91,8.69,['22 Nov 2020 21:55:58']
474,2324857,Pindiga,NG,9.98,10.93,295.7,23.0,73.0,42,94,3.09,6.87,['22 Nov 2020 21:55:58']
475,1259608,Pīpār,IN,26.39,73.54,291.66,18.0,65.0,28,0,3.5,7.78,['22 Nov 2020 21:55:58']
476,3932145,Pisco,PE,-13.7,-76.22,290.81,18.0,64.0,82,0,5.1,11.33,['22 Nov 2020 21:55:58']
477,3517970,Pochutla,MX,15.74,-96.47,299.21,26.0,79.0,78,5,1.09,2.42,['22 Nov 2020 21:55:58']
478,3372783,Ponta Delgada,PT,37.73,-25.67,289.15,16.0,61.0,87,20,4.1,9.11,['22 Nov 2020 21:55:58']
479,2264557,Ponta do Sol,PT,32.67,-17.1,289.6,17.0,62.0,77,20,2.6,5.78,['22 Nov 2020 21:55:58']
480,1259395,Porbandar,IN,21.64,69.61,291.15,18.0,64.0,68,0,2.56,5.69,['22 Nov 2020 21:55:58']
481,964432,Port Alfred,ZA,-33.59,26.89,291.27,18.0,65.0,88,91,3.61,8.02,['22 Nov 2020 21:55:58']
482,1259385,Port Blair,IN,11.67,92.75,301.44,28.0,83.0,76,100,4.17,9.27,['22 Nov 2020 21:55:58']
483,964420,Port Elizabeth,ZA,-33.92,25.57,290.15,17.0,63.0,93,75,2.1,4.67,['22 Nov 2020 21:55:58']
484,6111862,Port Hardy,CA,50.7,-127.42,279.53,6.0,43.0,93,90,9.3,20.67,['22 Nov 2020 21:55:58']
485,6111867,Port Hawkesbury,CA,45.62,-61.35,272.51,-1.0,31.0,74,90,1.5,3.33,['22 Nov 2020 21:55:58']
486,2063036,Port Lincoln,AU,-34.73,135.87,291.89,19.0,66.0,59,8,7.17,15.93,['22 Nov 2020 21:55:58']
487,2396518,Port-Gentil,GA,-0.72,8.78,298.82,26.0,78.0,88,100,6.13,13.62,['22 Nov 2020 21:55:58']
488,5746545,Portland,US,45.52,-122.68,277.42,4.0,40.0,86,90,2.6,5.78,['22 Nov 2020 21:55:58']
489,3391387,Porto de Moz,BR,-1.75,-52.24,297.37,24.0,76.0,93,100,0.55,1.22,['22 Nov 2020 21:55:58']
490,2392087,Porto-Novo,BJ,6.5,2.6,299.11,26.0,79.0,86,99,2.38,5.29,['22 Nov 2020 21:55:58']
491,8010683,Porto Santo,PT,33.07,-16.34,290.15,17.0,63.0,82,20,2.1,4.67,['22 Nov 2020 21:55:58']
492,3374333,Praia,CV,14.92,-23.51,298.15,25.0,77.0,78,0,3.6,8.0,['22 Nov 2020 21:55:58']
493,2985289,Arrondissement de Privas,FR,44.58,4.5,274.65,2.0,35.0,77,0,2.1,4.67,['22 Nov 2020 21:55:58']
494,3991622,La Providencia,MX,28.72,-111.58,290.91,18.0,64.0,73,28,0.89,1.98,['22 Nov 2020 21:55:58']
495,3652764,Puerto Ayora,EC,-0.74,-90.35,294.82,22.0,71.0,82,52,1.79,3.98,['22 Nov 2020 21:55:58']
496,3617154,Puerto Cabezas,NI,14.04,-83.39,298.63,26.0,78.0,89,100,2.54,5.64,['22 Nov 2020 21:55:58']
497,3671519,Puerto Carreño,CO,6.19,-67.49,298.72,26.0,78.0,85,47,1.78,3.96,['22 Nov 2020 21:55:58']
498,2512186,Puerto del Rosario,ES,28.5,-13.86,293.15,20.0,68.0,88,40,5.1,11.33,['22 Nov 2020 21:55:58']
499,3671437,Caucayá,CO,-0.19,-74.78,296.74,23.0,74.0,96,97,0.58,1.29,['22 Nov 2020 21:55:58']
500,3840092,Puerto Madryn,AR,-42.77,-65.04,295.33,22.0,72.0,26,34,6.86,15.24,['22 Nov 2020 21:55:58']
501,3991347,Puerto Peñasco,MX,31.32,-113.53,294.26,21.0,70.0,79,100,0.45,1.0,['22 Nov 2020 21:55:58']
502,3444201,Puerto Quijarro,BO,-17.78,-57.77,299.83,27.0,80.0,30,0,1.57,3.49,['22 Nov 2020 21:55:58']
503,3429732,Puerto Rico,AR,-26.8,-55.02,291.61,18.0,65.0,53,0,0.56,1.24,['22 Nov 2020 21:55:58']
504,3671337,Puerto Rondón,CO,6.28,-71.1,296.99,24.0,75.0,91,82,2.02,4.49,['22 Nov 2020 21:55:58']
505,3874930,Puerto Varas,CL,-41.32,-72.99,283.15,10.0,50.0,76,75,2.1,4.67,['22 Nov 2020 21:55:58']
506,3874787,Punta Arenas,CL,-53.15,-70.92,281.04,8.0,46.0,65,75,1.0,2.22,['22 Nov 2020 21:55:58']
507,1299154,Prome,MM,18.82,95.22,297.13,24.0,75.0,71,0,4.12,9.16,['22 Nov 2020 21:55:58']
508,3169687,Quattro Castella,IT,44.63,10.47,275.3,2.0,36.0,49,16,1.01,2.24,['22 Nov 2020 21:55:58']
509,1028434,Quelimane,MZ,-17.88,36.89,297.09,24.0,75.0,88,20,2.1,4.67,['22 Nov 2020 21:55:58']
510,3839479,Rafaela,AR,-31.25,-61.49,295.14,22.0,72.0,40,0,0.45,1.0,['22 Nov 2020 21:55:58']
511,5836068,Rawlins,US,41.79,-107.24,269.15,-4.0,25.0,32,1,2.69,5.98,['22 Nov 2020 21:55:58']
512,2356228,Réo,BF,12.32,-2.47,295.32,22.0,72.0,21,14,3.8,8.44,['22 Nov 2020 21:55:58']
513,3372707,Ribeira Grande,PT,38.52,-28.7,289.88,17.0,62.0,75,3,4.07,9.04,['22 Nov 2020 21:55:58']
514,962367,Richards Bay,ZA,-28.78,32.04,293.04,20.0,68.0,89,99,1.99,4.42,['22 Nov 2020 21:55:58']
515,5387494,Ridgecrest,US,35.62,-117.67,284.82,12.0,53.0,39,0,1.56,3.47,['22 Nov 2020 21:55:58']
516,4030556,Rikitea,PF,-23.12,-134.97,296.62,23.0,74.0,75,100,2.99,6.64,['22 Nov 2020 21:55:58']
517,4218882,Rincon,US,32.3,-81.24,290.58,17.0,63.0,93,90,2.6,5.78,['22 Nov 2020 21:55:58']
518,961226,Ritchie,ZA,-29.04,24.6,289.15,16.0,61.0,87,0,3.6,8.0,['22 Nov 2020 21:55:58']
519,3577430,Road Town,VG,18.42,-64.62,300.19,27.0,81.0,81,4,5.81,12.91,['22 Nov 2020 21:55:58']
520,3440777,Rocha,UY,-34.48,-54.33,285.41,12.0,54.0,92,0,3.26,7.24,['22 Nov 2020 21:55:58']
521,350203,Rosetta,EG,31.4,30.42,290.15,17.0,63.0,88,40,1.0,2.22,['22 Nov 2020 21:55:58']
522,2639069,Rottingdean,GB,50.81,-0.06,279.52,6.0,43.0,94,22,0.45,1.0,['22 Nov 2020 21:55:58']
523,5488598,Ruidoso,US,33.33,-105.67,276.62,3.0,38.0,100,90,2.6,5.78,['22 Nov 2020 21:55:58']
524,423549,Rumonge,BI,-3.97,29.44,295.12,22.0,72.0,72,37,1.51,3.36,['22 Nov 2020 21:55:58']
525,2212775,Sabha,LY,27.04,14.43,287.93,15.0,59.0,37,0,6.64,14.76,['22 Nov 2020 21:55:58']
526,5546220,Saint George,US,37.1,-113.58,284.36,11.0,52.0,25,1,0.48,1.07,['22 Nov 2020 21:55:58']
527,4171522,St. Pete Beach,US,27.73,-82.74,294.39,21.0,70.0,94,1,2.6,5.78,['22 Nov 2020 21:55:58']
528,3579925,St. George's,GD,12.06,-61.75,300.15,27.0,81.0,78,20,7.7,17.11,['22 Nov 2020 21:55:58']
529,6690296,Saint-Joseph,RE,-21.37,55.62,297.15,24.0,75.0,69,88,4.6,10.22,['22 Nov 2020 21:55:58']
530,6690297,Saint-Leu,RE,-21.15,55.28,295.03,22.0,71.0,69,82,4.6,10.22,['22 Nov 2020 21:55:58']
531,935215,Saint-Philippe,RE,-21.36,55.77,295.37,22.0,72.0,69,96,4.6,10.22,['22 Nov 2020 21:55:58']
532,6137947,Sainte-Julienne,CA,45.97,-73.72,271.43,-2.0,29.0,99,100,2.1,4.67,['22 Nov 2020 21:55:58']
533,935248,Sainte-Suzanne,RE,-20.91,55.61,294.59,22.0,71.0,64,40,5.7,12.67,['22 Nov 2020 21:55:58']
534,102527,Sakakah,SA,29.97,40.21,283.15,10.0,50.0,81,0,1.24,2.76,['22 Nov 2020 21:55:58']
535,286621,Salalah,OM,17.02,54.09,300.15,27.0,81.0,65,0,1.5,3.33,['22 Nov 2020 21:55:58']
536,3361934,Saldanha,ZA,-33.01,17.94,285.15,12.0,54.0,87,54,1.0,2.22,['22 Nov 2020 21:55:58']
537,3389822,Salinópolis,BR,-0.61,-47.36,299.98,27.0,80.0,81,91,4.3,9.56,['22 Nov 2020 21:55:58']
538,3492997,Samaná,DO,19.21,-69.34,297.37,24.0,76.0,87,68,2.73,6.07,['22 Nov 2020 21:55:58']
539,5530022,San Angelo,US,31.46,-100.44,284.71,12.0,53.0,80,100,2.68,5.96,['22 Nov 2020 21:55:58']
540,7647007,Bariloche,AR,-41.15,-71.31,285.15,12.0,54.0,62,0,5.7,12.67,['22 Nov 2020 21:55:58']
541,3628473,San Cristobal,VE,7.77,-72.22,291.89,19.0,66.0,90,69,0.93,2.07,['22 Nov 2020 21:55:58']
542,3669549,San José del Palmar,CO,4.97,-76.23,290.04,17.0,62.0,100,96,0.55,1.22,['22 Nov 2020 21:55:58']
543,3837213,San Juan,AR,-31.54,-68.54,302.47,29.0,85.0,33,0,11.1,24.67,['22 Nov 2020 21:55:58']
544,3444105,San Matías,BO,-16.37,-58.4,299.85,27.0,80.0,34,14,1.39,3.09,['22 Nov 2020 21:55:58']
545,1688781,City of San Pedro,PH,14.35,121.02,304.81,32.0,89.0,52,40,8.2,18.22,['22 Nov 2020 21:55:58']
546,1688696,San Policarpo,PH,12.18,125.51,298.85,26.0,78.0,89,100,5.61,12.47,['22 Nov 2020 21:55:58']
547,2282006,San-Pédro,CI,4.75,-6.64,298.11,25.0,77.0,89,100,2.14,4.76,['22 Nov 2020 21:55:58']
548,3662489,Santa Isabel Rio Negro,BR,-0.41,-65.02,296.7,23.0,74.0,88,32,0.48,1.07,['22 Nov 2020 21:55:58']
549,2511102,Santa Pola,ES,38.19,-0.57,281.92,9.0,48.0,81,0,2.6,5.78,['22 Nov 2020 21:55:58']
550,1687894,Santa Rosa,PH,14.31,121.11,304.8,32.0,89.0,52,40,8.2,18.22,['22 Nov 2020 21:55:58']
551,3835869,Santiago del Estero,AR,-27.8,-64.26,301.19,28.0,82.0,38,17,8.58,19.07,['22 Nov 2020 21:55:58']
552,3388847,São Félix do Xingu,BR,-6.64,-51.99,294.89,22.0,71.0,97,100,0.18,0.4,['22 Nov 2020 21:55:58']
553,3374210,São Filipe,CV,14.9,-24.5,298.18,25.0,77.0,75,81,1.74,3.87,['22 Nov 2020 21:55:58']
554,3662342,São Gabriel da Cachoeira,BR,-0.13,-67.09,296.78,24.0,75.0,92,89,0.37,0.82,['22 Nov 2020 21:55:58']
555,3448903,São João da Barra,BR,-21.64,-41.05,295.84,23.0,73.0,83,100,4.18,9.29,['22 Nov 2020 21:55:58']
556,3388441,São José de Ribamar,BR,-2.56,-44.05,298.15,25.0,77.0,100,75,2.1,4.67,['22 Nov 2020 21:55:58']
557,3388145,São Raimundo Nonato,BR,-9.02,-42.7,295.71,23.0,73.0,87,49,0.78,1.73,['22 Nov 2020 21:55:58']
558,2323675,Sapele,NG,5.89,5.68,298.04,25.0,77.0,93,100,1.18,2.62,['22 Nov 2020 21:55:58']
559,2425791,Sarh,TD,9.14,18.39,294.15,21.0,70.0,77,0,1.03,2.29,['22 Nov 2020 21:55:58']
560,2281951,Sassandra,CI,4.95,-6.08,297.89,25.0,77.0,88,99,2.25,5.0,['22 Nov 2020 21:55:58']
561,145531,Saurimo,AO,-9.66,20.39,291.09,18.0,64.0,97,100,1.3,2.89,['22 Nov 2020 21:55:58']
562,2391893,Savé,BJ,8.04,2.49,297.59,24.0,76.0,75,60,0.9,2.0,['22 Nov 2020 21:55:58']
563,70979,Sayyan,YE,15.17,44.32,280.53,7.0,45.0,57,36,1.77,3.93,['22 Nov 2020 21:55:58']
564,2638419,Scarborough,GB,54.28,-0.4,275.48,2.0,36.0,86,2,2.68,5.96,['22 Nov 2020 21:55:58']
565,3691954,Sechura,PE,-5.56,-80.82,291.52,18.0,65.0,75,0,4.65,10.33,['22 Nov 2020 21:55:58']
566,6144312,Sept-Îles,CA,50.2,-66.38,265.0,-8.0,17.0,62,100,1.0,2.22,['22 Nov 2020 21:55:58']
567,1492663,Serov,RU,59.6,60.58,266.33,-7.0,20.0,88,73,4.52,10.04,['22 Nov 2020 21:55:58']
568,1280037,Shache,CN,38.42,77.24,268.4,-5.0,23.0,76,79,1.95,4.33,['22 Nov 2020 21:55:58']
569,933077,Shakawe,BW,-18.37,21.85,295.13,22.0,72.0,78,100,1.3,2.89,['22 Nov 2020 21:55:58']
570,4842898,Shelton,US,41.32,-73.09,284.04,11.0,52.0,81,90,7.2,16.0,['22 Nov 2020 21:55:58']
571,1529195,Shihezi,CN,44.3,86.03,267.13,-6.0,21.0,80,1,1.71,3.8,['22 Nov 2020 21:55:58']
572,1735902,Sibu,MY,2.3,111.82,301.01,28.0,82.0,78,40,2.6,5.78,['22 Nov 2020 21:55:58']
573,2383119,Sibut,CF,5.72,19.07,294.84,22.0,71.0,54,66,0.82,1.82,['22 Nov 2020 21:55:58']
574,2487130,Sidi Ali,DZ,36.1,0.42,283.46,11.0,51.0,73,0,1.28,2.84,['22 Nov 2020 21:55:58']
575,1626936,Singaparna,ID,-7.35,108.11,303.26,30.0,86.0,56,81,1.45,3.22,['22 Nov 2020 21:55:58']
576,3380290,Sinnamary,GF,5.38,-52.95,298.48,26.0,78.0,90,97,4.05,9.0,['22 Nov 2020 21:55:58']
577,174972,Sisian,AM,39.53,46.03,277.15,4.0,39.0,80,75,2.1,4.67,['22 Nov 2020 21:55:58']
578,5557293,Sitka,US,57.05,-135.33,277.15,4.0,39.0,86,90,3.1,6.89,['22 Nov 2020 21:55:58']
579,1491719,Sladkovo,RU,55.53,70.34,262.01,-11.0,12.0,92,30,1.22,2.71,['22 Nov 2020 21:55:58']
580,149812,Sokoni,TZ,-6.43,39.55,299.82,27.0,80.0,80,4,3.93,8.73,['22 Nov 2020 21:55:58']
581,2134814,Sola,VU,-13.88,167.55,299.39,26.0,79.0,83,90,4.77,10.6,['22 Nov 2020 21:55:58']
582,490683,Somovo,RU,51.74,39.37,270.15,-3.0,27.0,86,75,5.0,11.11,['22 Nov 2020 21:55:58']
583,1626542,Sorong,ID,-0.88,131.25,302.21,29.0,84.0,68,84,2.17,4.82,['22 Nov 2020 21:55:58']
584,2236967,Soyo,AO,-6.13,12.37,298.16,25.0,77.0,88,100,2.85,6.33,['22 Nov 2020 21:55:58']
585,1255619,Srīvardhan,IN,18.03,73.02,299.24,26.0,79.0,55,1,2.44,5.42,['22 Nov 2020 21:55:58']
586,2636638,Stromness,GB,58.97,-3.3,279.15,6.0,43.0,81,69,4.6,10.22,['22 Nov 2020 21:55:58']
587,3903987,Sucre,BO,-19.03,-65.26,287.68,14.0,58.0,63,84,2.36,5.24,['22 Nov 2020 21:55:58']
588,2295065,Suhum,GH,6.04,-0.45,298.15,25.0,77.0,88,0,3.6,8.0,['22 Nov 2020 21:55:58']
589,486725,Sukhaya Buyvola,RU,45.15,43.0,271.15,-2.0,28.0,92,90,5.0,11.11,['22 Nov 2020 21:55:58']
590,286245,Sur,OM,22.57,59.53,296.12,23.0,73.0,46,0,1.41,3.13,['22 Nov 2020 21:55:58']
591,1490624,Surgut,RU,61.25,73.42,265.15,-8.0,18.0,100,75,3.0,6.67,['22 Nov 2020 21:55:58']
592,2281120,Tabou,CI,4.42,-7.35,298.65,26.0,78.0,86,100,3.07,6.82,['22 Nov 2020 21:55:58']
593,2294915,Takoradze,GH,4.88,-1.76,298.5,26.0,78.0,88,45,3.54,7.87,['22 Nov 2020 21:55:58']
594,3386931,Tamandaré,BR,-8.76,-35.1,297.76,24.0,76.0,80,72,2.61,5.8,['22 Nov 2020 21:55:58']
595,2439155,Tanout,NE,14.97,8.89,292.78,19.0,67.0,31,0,2.73,6.07,['22 Nov 2020 21:55:58']
596,2450173,Taoudenni,ML,22.68,-3.98,287.14,14.0,57.0,37,0,5.84,12.98,['22 Nov 2020 21:55:58']
597,3424607,Tasiilaq,GL,65.61,-37.64,267.15,-6.0,21.0,73,99,1.5,3.33,['22 Nov 2020 21:55:58']
598,4033557,Tautira,PF,-17.73,-149.15,302.1,29.0,84.0,70,75,3.1,6.89,['22 Nov 2020 21:55:58']
599,2363908,Tchamba,TG,9.03,1.42,295.73,23.0,73.0,46,1,0.81,1.8,['22 Nov 2020 21:55:58']
600,2221607,Tcholliré,CM,8.4,14.17,295.78,23.0,73.0,45,100,0.24,0.53,['22 Nov 2020 21:55:58']
601,2438855,Téra,NE,14.01,0.75,294.9,22.0,71.0,21,0,2.52,5.6,['22 Nov 2020 21:55:58']
602,3386467,Terra Santa,BR,-2.1,-56.49,297.04,24.0,75.0,92,100,1.32,2.93,['22 Nov 2020 21:55:58']
603,2449893,Tessalit,ML,20.2,1.01,287.12,14.0,57.0,38,0,5.74,12.76,['22 Nov 2020 21:55:58']
604,1026014,Tete,MZ,-16.16,33.59,302.15,29.0,84.0,62,0,2.6,5.78,['22 Nov 2020 21:55:58']
605,1254709,Tezu,IN,27.92,96.17,294.22,21.0,70.0,36,93,0.53,1.18,['22 Nov 2020 21:55:58']
606,3573374,The Valley,AI,18.22,-63.06,299.74,27.0,80.0,74,40,6.2,13.78,['22 Nov 2020 21:55:58']
607,1337610,Thinadhoo,MV,0.53,72.93,301.23,28.0,83.0,71,100,2.13,4.73,['22 Nov 2020 21:55:58']
608,4226364,Thomaston,US,32.89,-84.33,288.01,15.0,59.0,77,1,1.92,4.27,['22 Nov 2020 21:55:58']
609,6165406,Thompson,CA,55.74,-97.86,255.15,-18.0,-0.0,84,90,1.5,3.33,['22 Nov 2020 21:55:58']
610,2015306,Tiksi,RU,71.69,128.87,251.52,-22.0,-7.0,89,1,2.54,5.64,['22 Nov 2020 21:55:58']
611,2120591,Tilichiki,RU,60.47,166.1,256.69,-17.0,2.0,95,10,2.78,6.18,['22 Nov 2020 21:55:58']
612,1053384,Toamasina,MG,-18.17,49.38,296.15,23.0,73.0,88,20,1.0,2.22,['22 Nov 2020 21:55:58']
613,2414659,Tokonou,GN,9.65,-9.78,292.88,20.0,68.0,59,15,0.94,2.09,['22 Nov 2020 21:55:58']
614,2510407,Toledo,ES,39.83,-4.0,280.37,7.0,45.0,66,0,0.84,1.87,['22 Nov 2020 21:55:58']
615,3661894,Tonantins,BR,-2.87,-67.8,297.01,24.0,75.0,95,80,0.72,1.6,['22 Nov 2020 21:55:58']
616,1623424,Tondano,ID,1.3,124.91,299.15,26.0,79.0,94,40,1.0,2.22,['22 Nov 2020 21:55:58']
617,6167817,Torbay,CA,47.67,-52.73,268.41,-5.0,23.0,73,20,2.6,5.78,['22 Nov 2020 21:55:58']
618,2522890,Tortolì,IT,39.93,9.66,285.15,12.0,54.0,71,40,5.7,12.67,['22 Nov 2020 21:55:58']
619,3382867,Totness,SR,5.88,-56.32,298.04,25.0,77.0,88,100,2.84,6.31,['22 Nov 2020 21:55:58']
620,3386213,Touros,BR,-5.2,-35.46,297.15,24.0,75.0,88,20,1.5,3.33,['22 Nov 2020 21:55:58']
621,3386177,Trairi,BR,-3.28,-39.27,299.38,26.0,79.0,80,20,4.14,9.2,['22 Nov 2020 21:55:58']
622,3833883,Trelew,AR,-43.25,-65.31,295.5,22.0,72.0,20,67,4.07,9.04,['22 Nov 2020 21:55:58']
623,2210247,Tripoli,LY,32.88,13.19,288.01,15.0,59.0,84,99,4.17,9.27,['22 Nov 2020 21:55:58']
624,204953,Tshikapa,CD,-6.42,20.8,293.95,21.0,69.0,91,73,0.84,1.87,['22 Nov 2020 21:55:58']
625,2273435,Tubmanburg,LR,6.87,-10.82,295.66,23.0,73.0,95,74,0.79,1.76,['22 Nov 2020 21:55:58']
626,3385980,Tucumã,BR,-0.18,-50.05,297.98,25.0,77.0,88,100,1.49,3.31,['22 Nov 2020 21:55:58']
627,2014927,Tulun,RU,54.56,100.58,270.24,-3.0,27.0,96,99,2.83,6.29,['22 Nov 2020 21:55:58']
628,1337619,Ugoofaaru,MV,5.67,73.0,301.0,28.0,82.0,76,49,5.81,12.91,['22 Nov 2020 21:55:58']
629,364933,Umm Kaddadah,SD,13.6,26.69,292.05,19.0,66.0,27,12,6.84,15.2,['22 Nov 2020 21:55:58']
630,100926,Umluj,SA,25.02,37.27,297.93,25.0,77.0,38,0,3.87,8.6,['22 Nov 2020 21:55:58']
631,1488429,Uray,RU,60.12,64.78,265.33,-8.0,18.0,92,46,4.55,10.11,['22 Nov 2020 21:55:58']
632,3666409,Uribia,CO,11.71,-72.27,299.6,27.0,80.0,83,97,4.88,10.84,['22 Nov 2020 21:55:58']
633,149132,Usevya,TZ,-7.1,31.23,293.15,20.0,68.0,88,0,0.63,1.4,['22 Nov 2020 21:55:58']
634,3833367,Ushuaia,AR,-54.8,-68.3,280.15,7.0,45.0,75,40,5.1,11.33,['22 Nov 2020 21:55:58']
635,2971298,Ussel,FR,45.55,2.32,275.08,2.0,35.0,79,0,0.3,0.67,['22 Nov 2020 21:55:58']
636,149050,Uvinza,TZ,-5.1,30.39,292.06,19.0,66.0,90,45,0.23,0.51,['22 Nov 2020 21:55:58']
637,4032243,Vaini,TO,-21.2,-175.2,300.15,27.0,81.0,74,75,4.1,9.11,['22 Nov 2020 21:55:58']
638,4228147,Valdosta,US,30.83,-83.28,289.28,16.0,61.0,82,1,2.42,5.38,['22 Nov 2020 21:55:58']
639,3868633,Vallenar,CL,-28.57,-70.76,287.76,14.0,58.0,56,0,0.09,0.2,['22 Nov 2020 21:55:58']
640,2732965,Valpaços,PT,41.61,-7.31,280.16,7.0,45.0,71,40,0.6,1.33,['22 Nov 2020 21:55:58']
641,632542,Vammala,FI,61.33,22.9,275.8,3.0,37.0,86,0,5.7,12.67,['22 Nov 2020 21:55:58']
642,2084442,Vanimo,PG,-2.67,141.3,301.86,29.0,84.0,77,93,0.52,1.16,['22 Nov 2020 21:55:58']
643,2137773,Vao,NC,-22.67,167.48,295.53,22.0,72.0,76,0,6.81,15.13,['22 Nov 2020 21:55:58']
644,2280045,Vavoua,CI,7.38,-6.48,294.93,22.0,71.0,92,63,1.45,3.22,['22 Nov 2020 21:55:58']
645,2013639,Verkhnevilyuysk,RU,63.45,120.32,258.36,-15.0,5.0,94,100,1.42,3.16,['22 Nov 2020 21:55:58']
646,2610343,Vestmanna,FO,62.16,-7.17,277.15,4.0,39.0,86,35,2.6,5.78,['22 Nov 2020 21:55:58']
647,3412093,Vestmannaeyjar,IS,63.44,-20.27,276.33,3.0,38.0,78,19,6.89,15.31,['22 Nov 2020 21:55:58']
648,1819729,Hong Kong,HK,22.29,114.16,294.82,22.0,71.0,83,93,0.45,1.0,['22 Nov 2020 21:55:58']
649,3832899,Viedma,AR,-40.81,-63.0,292.59,19.0,67.0,68,97,0.89,1.98,['22 Nov 2020 21:55:58']
650,3374120,Vila do Maio,CV,15.13,-23.22,297.15,24.0,75.0,83,0,2.6,5.78,['22 Nov 2020 21:55:58']
651,3372472,Vila Franca do Campo,PT,37.72,-25.43,289.15,16.0,61.0,87,20,4.1,9.11,['22 Nov 2020 21:55:58']
652,3445026,Vila Velha,BR,-20.33,-40.29,296.15,23.0,73.0,94,75,1.5,3.33,['22 Nov 2020 21:55:58']
653,178522,Voi,KE,-3.39,38.56,294.63,22.0,71.0,89,63,1.61,3.58,['22 Nov 2020 21:55:58']
654,784227,Vranje,RS,42.55,21.9,271.23,-2.0,29.0,92,0,0.74,1.64,['22 Nov 2020 21:55:58']
655,942511,Vryburg,ZA,-26.96,24.73,293.27,20.0,68.0,77,0,6.43,14.29,['22 Nov 2020 21:55:58']
656,3359638,Walvis Bay,NA,-22.96,14.51,285.8,13.0,55.0,93,0,2.1,4.67,['22 Nov 2020 21:55:58']
657,5815135,Washington,US,47.5,-120.5,275.49,2.0,36.0,88,100,0.6,1.33,['22 Nov 2020 21:55:58']
658,204283,Watsa,CD,3.04,29.54,290.48,17.0,63.0,98,5,0.91,2.02,['22 Nov 2020 21:55:58']
659,2960964,Wexford,IE,52.33,-6.46,275.93,3.0,37.0,88,33,3.24,7.2,['22 Nov 2020 21:55:58']
660,5321473,Winslow,US,35.02,-110.7,282.15,9.0,48.0,31,1,2.1,4.67,['22 Nov 2020 21:55:58']
661,1604869,Yala,TH,6.33,101.25,298.15,25.0,77.0,100,75,2.1,4.67,['22 Nov 2020 21:55:58']
662,203717,Yangambi,CD,0.81,24.43,294.96,22.0,71.0,89,100,0.46,1.02,['22 Nov 2020 21:55:58']
663,3979975,Yaqui,MX,27.37,-110.17,296.37,23.0,74.0,44,0,2.32,5.16,['22 Nov 2020 21:55:58']
664,1252770,Yavatmal,IN,20.4,78.13,291.4,18.0,65.0,44,0,2.95,6.56,['22 Nov 2020 21:55:58']
665,1162316,Yazman,PK,29.12,71.74,290.02,17.0,62.0,29,0,2.79,6.2,['22 Nov 2020 21:55:58']
666,6185377,Yellowknife,CA,62.46,-114.35,257.07,-16.0,3.0,84,90,7.2,16.0,['22 Nov 2020 21:55:58']
667,2318123,Yenagoa,NG,4.92,6.26,297.76,24.0,76.0,92,100,1.77,3.93,['22 Nov 2020 21:55:58']
668,1786657,Yinchuan,CN,38.47,106.27,266.65,-7.0,20.0,87,56,2.73,6.07,['22 Nov 2020 21:55:58']
669,2220853,Yokadouma,CM,3.52,15.05,297.03,24.0,75.0,62,99,0.31,0.69,['22 Nov 2020 21:55:58']
670,2402715,Yonibana,SL,8.44,-12.24,295.69,23.0,73.0,96,7,0.64,1.42,['22 Nov 2020 21:55:58']
671,2448442,Yorosso,ML,12.35,-4.78,294.74,22.0,71.0,22,0,2.98,6.62,['22 Nov 2020 21:55:58']
672,6355222,Yulara,AU,-25.24,130.99,304.15,31.0,88.0,23,73,6.2,13.78,['22 Nov 2020 21:55:58']
673,3104324,Zaragoza,ES,41.66,-0.88,273.15,0.0,32.0,63,0,0.5,1.11,['22 Nov 2020 21:55:58']
674,235826,Zemio,CF,5.03,25.14,293.03,20.0,68.0,75,2,0.76,1.69,['22 Nov 2020 21:55:58']
675,2804642,Zeven,DE,53.3,9.28,277.81,4.0,40.0,92,97,1.79,3.98,['22 Nov 2020 21:55:58']
676,453850,Zilupe,LV,56.39,28.12,277.94,5.0,41.0,85,98,4.57,10.16,['22 Nov 2020 21:55:58']
