,City ID,City,Country Code,Latitude,Longitude,Temp Kelvin,Temp C,Temp F,Humidity (RH)%,Cloud% Cover,wind speed (m/s),wind speed (mph),Time stamp
0,3119841,A Coruña,ES,43.37,-8.4,288.13,15.0,59.0,77,0,2.1,4.67,['22 Nov 2020 11:19:59']
1,110690,Abhā,SA,18.22,42.51,295.15,22.0,72.0,12,0,5.1,11.33,['22 Nov 2020 11:19:59']
2,362973,Abnūb,EG,27.27,31.15,293.15,20.0,68.0,45,0,5.1,11.33,['22 Nov 2020 11:19:59']
3,174448,Abu Kamal,SY,34.45,40.92,289.6,17.0,62.0,44,0,3.3,7.33,['22 Nov 2020 11:19:59']
4,380348,Abū Zabad,SD,12.35,29.25,299.5,26.0,79.0,17,2,4.99,11.09,['22 Nov 2020 11:19:59']
5,2381972,Adrar,MR,20.5,-10.07,302.23,29.0,84.0,15,0,4.84,10.76,['22 Nov 2020 11:19:59']
6,245669,Adré,TD,13.47,22.2,299.85,27.0,80.0,22,66,3.53,7.84,['22 Nov 2020 11:19:59']
7,2448083,Agadez,NE,19.75,10.25,294.62,22.0,71.0,22,47,0.77,1.71,['22 Nov 2020 11:19:59']
8,3472864,Águas Formosas,BR,-17.08,-40.94,294.35,21.0,70.0,92,100,1.82,4.04,['22 Nov 2020 11:19:59']
9,2514392,Aguilar de la Frontera,ES,37.51,-4.66,292.15,19.0,66.0,42,0,2.1,4.67,['22 Nov 2020 11:19:59']
10,2522325,Agüimes,ES,27.91,-15.45,296.54,23.0,74.0,73,0,2.6,5.78,['22 Nov 2020 11:19:59']
11,1651810,Airai,TL,-8.93,125.41,290.47,17.0,63.0,100,100,0.64,1.42,['22 Nov 2020 11:19:59']
12,2224162,Akom,CM,2.67,12.71,301.82,29.0,84.0,53,63,0.95,2.11,['22 Nov 2020 11:19:59']
13,2028028,Aksha,RU,50.28,113.29,265.95,-7.0,19.0,89,7,4.64,10.31,['22 Nov 2020 11:19:59']
14,2350841,Akure,NG,7.25,5.19,306.8,34.0,93.0,33,50,1.08,2.4,['22 Nov 2020 11:19:59']
15,2633274,Akureyri,IS,65.68,-18.09,272.15,-1.0,30.0,86,75,3.6,8.0,['22 Nov 2020 11:19:59']
16,1295765,Sittwe,MM,20.15,92.9,297.86,24.0,76.0,79,37,4.94,10.98,['22 Nov 2020 11:19:59']
17,5106841,Albany,US,42.6,-73.97,275.64,2.0,36.0,62,88,2.49,5.53,['22 Nov 2020 11:19:59']
18,3408073,Alcântara,BR,-2.41,-44.41,305.15,32.0,90.0,59,75,6.2,13.78,['22 Nov 2020 11:19:59']
19,3472638,Alegrete,BR,-29.78,-55.79,300.31,27.0,81.0,40,0,4.77,10.6,['22 Nov 2020 11:19:59']
20,2022083,Alekseyevsk,RU,57.84,108.35,265.96,-7.0,19.0,95,100,3.91,8.69,['22 Nov 2020 11:19:59']
21,3407980,Alenquer,BR,-1.94,-54.74,300.15,27.0,81.0,78,40,2.6,5.78,['22 Nov 2020 11:19:59']
22,361058,Alexandria,EG,31.22,29.96,294.15,21.0,70.0,68,40,4.1,9.11,['22 Nov 2020 11:19:59']
23,3407903,Almeirim,BR,-1.52,-52.58,304.04,31.0,88.0,61,100,1.12,2.49,['22 Nov 2020 11:19:59']
24,1731298,Aloleng,PH,16.13,119.78,299.24,26.0,79.0,72,0,4.05,9.0,['22 Nov 2020 11:19:59']
25,6316343,Alta Floresta,BR,-9.88,-56.09,303.15,30.0,86.0,70,40,1.0,2.22,['22 Nov 2020 11:19:59']
26,3665380,Alvarães,BR,-3.22,-64.8,301.15,28.0,82.0,88,75,1.5,3.33,['22 Nov 2020 11:19:59']
27,1651591,Amahai,ID,-3.33,128.92,301.48,28.0,83.0,88,73,1.04,2.31,['22 Nov 2020 11:19:59']
28,3407762,Amapá,BR,1.0,-52.0,303.09,30.0,86.0,76,85,1.01,2.24,['22 Nov 2020 11:19:59']
29,1082243,Ambilobe,MG,-13.2,49.05,299.7,27.0,80.0,69,42,1.24,2.76,['22 Nov 2020 11:19:59']
30,1651531,Ambon City,ID,-3.7,128.18,301.48,28.0,83.0,88,49,1.67,3.71,['22 Nov 2020 11:19:59']
31,1621313,Ambulu,ID,-8.35,113.61,298.6,26.0,78.0,86,100,1.93,4.29,['22 Nov 2020 11:19:59']
32,3899695,Ancud,CL,-41.87,-73.82,285.2,12.0,54.0,66,90,4.1,9.11,['22 Nov 2020 11:19:59']
33,2367990,Aného,TG,6.23,1.6,304.15,31.0,88.0,70,20,5.7,12.67,['22 Nov 2020 11:19:59']
34,2349788,Ankpa,NG,7.37,7.63,305.48,32.0,90.0,33,100,1.73,3.84,['22 Nov 2020 11:19:59']
35,2304548,Anloga,GH,5.79,0.9,304.15,31.0,88.0,70,20,5.7,12.67,['22 Nov 2020 11:19:59']
36,323776,Antalya Province,TR,36.77,30.72,291.11,18.0,64.0,67,20,1.5,3.33,['22 Nov 2020 11:19:59']
37,3471846,Araçuaí,BR,-16.85,-42.07,298.64,26.0,78.0,72,97,2.55,5.67,['22 Nov 2020 11:19:59']
38,3471837,Araguaçu,BR,-12.93,-49.83,306.77,34.0,93.0,48,69,1.4,3.11,['22 Nov 2020 11:19:59']
39,2460954,Araouane,ML,18.9,-3.53,303.24,30.0,86.0,14,0,4.45,9.89,['22 Nov 2020 11:19:59']
40,3182897,Ardea,IT,41.61,12.51,285.15,12.0,54.0,47,5,2.1,4.67,['22 Nov 2020 11:19:59']
41,2742765,Areosa,PT,41.72,-8.86,290.4,17.0,63.0,48,0,1.5,3.33,['22 Nov 2020 11:19:59']
42,3665202,Aripuanã,BR,-9.17,-60.63,307.83,34.0,94.0,47,100,0.43,0.96,['22 Nov 2020 11:19:59']
43,2447513,Arlit,NE,18.74,7.39,301.42,28.0,83.0,14,11,2.48,5.51,['22 Nov 2020 11:19:59']
44,3471451,Arraial do Cabo,BR,-22.97,-42.03,298.15,25.0,77.0,69,75,6.2,13.78,['22 Nov 2020 11:19:59']
45,2521570,Arrecife,ES,28.96,-13.55,295.15,22.0,72.0,78,20,5.1,11.33,['22 Nov 2020 11:19:59']
46,587207,Artyom,AZ,40.47,50.33,278.15,5.0,41.0,80,40,2.1,4.67,['22 Nov 2020 11:19:59']
47,235039,Arua,UG,3.02,30.91,294.92,22.0,71.0,76,21,1.36,3.02,['22 Nov 2020 11:19:59']
48,2367886,Atakpamé,TG,7.53,1.13,306.97,34.0,93.0,30,54,1.63,3.62,['22 Nov 2020 11:19:59']
49,2381334,Atar,MR,20.52,-13.05,306.1,33.0,91.0,12,0,4.8,10.67,['22 Nov 2020 11:19:59']
50,1526041,Atasū,KZ,48.68,71.64,268.0,-5.0,23.0,96,100,4.01,8.91,['22 Nov 2020 11:19:59']
51,4020109,Atuona,PF,-9.8,-139.03,298.14,25.0,77.0,72,8,6.27,13.93,['22 Nov 2020 11:19:59']
52,2109701,Auki,SB,-8.77,160.7,298.26,25.0,77.0,84,8,1.55,3.44,['22 Nov 2020 11:19:59']
53,4231997,Avera,US,33.19,-82.53,291.73,18.0,65.0,68,90,2.6,5.78,['22 Nov 2020 11:19:59']
54,2303611,Esim,GH,4.87,-2.24,300.42,27.0,81.0,79,99,4.39,9.76,['22 Nov 2020 11:19:59']
55,2375255,Bafatá,GW,12.17,-14.75,308.98,36.0,96.0,24,72,1.71,3.8,['22 Nov 2020 11:19:59']
56,2252606,Bakel,SN,14.9,-12.46,310.85,38.0,100.0,9,0,4.71,10.47,['22 Nov 2020 11:19:59']
57,342856,Bako,ET,5.78,36.57,294.49,21.0,70.0,65,44,1.84,4.09,['22 Nov 2020 11:19:59']
58,1728675,Balabac,PH,7.99,117.06,301.56,28.0,83.0,80,75,7.04,15.64,['22 Nov 2020 11:19:59']
59,3128978,Balaguer,ES,41.79,0.81,284.62,12.0,53.0,71,0,2.1,4.67,['22 Nov 2020 11:19:59']
60,1650600,Balaipungut,ID,1.05,101.28,298.15,25.0,77.0,94,40,1.45,3.22,['22 Nov 2020 11:19:59']
61,1728500,Balangiga,PH,11.11,125.39,299.93,27.0,80.0,85,93,4.9,10.89,['22 Nov 2020 11:19:59']
62,2347954,Bama,NG,11.52,13.69,305.98,33.0,91.0,24,99,4.07,9.04,['22 Nov 2020 11:19:59']
63,1106677,Bambous Virieux,MU,-20.34,57.76,297.36,24.0,76.0,88,75,3.6,8.0,['22 Nov 2020 11:19:59']
64,64814,Bandarbeyla,SO,9.49,50.81,299.61,27.0,80.0,64,100,7.03,15.62,['22 Nov 2020 11:19:59']
65,1727358,Bangahan,PH,7.8,124.73,293.4,20.0,68.0,87,97,0.79,1.76,['22 Nov 2020 11:19:59']
66,2742416,Barcelos,PT,41.54,-8.62,290.44,17.0,63.0,48,0,1.5,3.33,['22 Nov 2020 11:19:59']
67,1276869,Barpathār,IN,26.3,93.87,289.41,16.0,61.0,91,27,0.9,2.0,['22 Nov 2020 11:19:59']
68,3470709,Barra do Garças,BR,-15.89,-52.26,307.83,34.0,94.0,31,0,3.27,7.27,['22 Nov 2020 11:19:59']
69,3406196,Barreirinhas,BR,-2.75,-42.83,304.28,31.0,88.0,57,90,6.36,14.13,['22 Nov 2020 11:19:59']
70,1726449,Basco,PH,20.45,121.97,299.93,27.0,80.0,82,9,10.18,22.62,['22 Nov 2020 11:19:59']
71,4315535,Bastrop,US,32.76,-91.87,293.18,20.0,68.0,64,40,2.1,4.67,['22 Nov 2020 11:19:59']
72,2310046,Bata,GQ,1.86,9.77,300.15,27.0,81.0,94,40,4.6,10.22,['22 Nov 2020 11:19:59']
73,3374083,Bathsheba,BB,13.22,-59.52,301.15,28.0,82.0,78,75,7.7,17.11,['22 Nov 2020 11:19:59']
74,780717,Båtsfjord,NO,70.63,29.72,271.51,-2.0,29.0,86,75,3.1,6.89,['22 Nov 2020 11:19:59']
75,1250161,Batticaloa,LK,7.71,81.69,297.74,24.0,76.0,89,100,7.18,15.96,['22 Nov 2020 11:19:59']
76,2347468,Bauchi,NG,10.5,10.0,304.76,32.0,89.0,25,77,2.24,4.98,['22 Nov 2020 11:19:59']
77,5895424,Bay Roberts,CA,47.6,-53.26,273.94,1.0,33.0,87,90,5.7,12.67,['22 Nov 2020 11:19:59']
78,4146934,Bayshore Gardens,US,27.43,-82.59,296.86,24.0,75.0,88,90,3.1,6.89,['22 Nov 2020 11:19:59']
79,1649378,Bekasi,ID,-6.23,106.99,300.46,27.0,81.0,88,40,1.64,3.64,['22 Nov 2020 11:19:59']
80,321572,Belen,TR,36.49,36.22,289.15,16.0,61.0,63,0,4.6,10.22,['22 Nov 2020 11:19:59']
81,2655984,Belfast,GB,54.58,-5.93,279.76,7.0,44.0,81,89,5.1,11.33,['22 Nov 2020 11:19:59']
82,2395182,Bembèrèkè,BJ,10.23,2.66,306.46,33.0,92.0,21,64,2.47,5.49,['22 Nov 2020 11:19:59']
83,1649150,Bengkulu,ID,-3.8,102.27,297.92,25.0,77.0,91,100,1.31,2.91,['22 Nov 2020 11:19:59']
84,3351663,Benguela,AO,-12.58,13.41,298.98,26.0,78.0,70,45,3.36,7.47,['22 Nov 2020 11:19:59']
85,3128273,Benicarló,ES,40.42,0.43,284.06,11.0,52.0,77,0,0.89,1.98,['22 Nov 2020 11:19:59']
86,2389086,Berbérati,CF,4.26,15.79,303.04,30.0,86.0,42,22,1.38,3.07,['22 Nov 2020 11:19:59']
87,3105522,Bereda,ES,43.27,-7.54,288.44,16.0,60.0,53,0,0.89,1.98,['22 Nov 2020 11:19:59']
88,2446796,Bilma,NE,18.69,12.92,297.74,24.0,76.0,19,0,2.48,5.51,['22 Nov 2020 11:19:59']
89,244878,Biltine,TD,14.53,20.92,302.79,29.0,85.0,19,87,3.47,7.71,['22 Nov 2020 11:19:59']
90,2801922,Binche,BE,50.41,4.16,280.92,8.0,46.0,99,100,4.49,9.98,['22 Nov 2020 11:19:59']
91,240210,Birao,CF,10.28,22.79,302.01,29.0,84.0,23,100,2.67,5.93,['22 Nov 2020 11:19:59']
92,931755,Blantyre,MW,-15.79,35.01,301.7,28.0,83.0,39,77,3.08,6.84,['22 Nov 2020 11:19:59']
93,2206939,Bluff,NZ,-46.6,168.33,278.71,6.0,42.0,94,46,0.45,1.0,['22 Nov 2020 11:19:59']
94,3664980,Boa Vista,BR,2.82,-60.67,299.15,26.0,79.0,83,90,1.0,2.22,['22 Nov 2020 11:19:59']
95,2362344,Bobo-Dioulasso,BF,11.18,-4.3,307.15,34.0,93.0,24,0,2.1,4.67,['22 Nov 2020 11:19:59']
96,3469601,Bocaiúva,BR,-17.11,-43.81,299.91,27.0,80.0,63,39,4.92,10.93,['22 Nov 2020 11:19:59']
97,218680,Boende,CD,-0.22,20.87,301.48,28.0,83.0,65,100,1.05,2.33,['22 Nov 2020 11:19:59']
98,2422968,Boffa,GN,10.17,-14.03,305.25,32.0,90.0,52,85,2.58,5.73,['22 Nov 2020 11:19:59']
99,1275339,Mumbai,IN,19.01,72.85,301.15,28.0,82.0,61,6,2.1,4.67,['22 Nov 2020 11:19:59']
100,1648186,Bontang,ID,0.13,117.5,300.83,28.0,82.0,80,76,2.58,5.73,['22 Nov 2020 11:19:59']
101,2409914,Bonthe,SL,7.53,-12.51,301.88,29.0,84.0,68,40,3.19,7.09,['22 Nov 2020 11:19:59']
102,2401495,Booué,GA,-0.09,11.94,299.88,27.0,80.0,88,66,0.72,1.6,['22 Nov 2020 11:19:59']
103,64013,Bosaso,SO,11.28,49.18,295.54,22.0,72.0,84,100,2.26,5.02,['22 Nov 2020 11:19:59']
104,6457397,Bose,IT,45.46,8.01,279.29,6.0,43.0,41,0,0.45,1.0,['22 Nov 2020 11:19:59']
105,2290985,Botro,CI,7.85,-5.31,306.15,33.0,91.0,38,20,1.0,2.22,['22 Nov 2020 11:19:59']
106,2459775,Bougouni,ML,11.42,-7.48,308.56,36.0,96.0,13,28,2.32,5.16,['22 Nov 2020 11:19:59']
107,4486983,Bowmore,US,34.94,-79.3,291.72,18.0,65.0,68,90,2.1,4.67,['22 Nov 2020 11:19:59']
108,2654970,Brae,GB,60.4,-1.35,281.15,8.0,46.0,70,20,9.8,21.78,['22 Nov 2020 11:19:59']
109,1015776,Bredasdorp,ZA,-34.53,20.04,292.15,19.0,66.0,68,91,3.6,8.0,['22 Nov 2020 11:19:59']
110,4419500,Brookhaven,US,31.58,-90.44,293.7,21.0,69.0,81,4,1.11,2.47,['22 Nov 2020 11:19:59']
111,5110365,Broome,US,42.25,-75.83,273.38,0.0,32.0,100,100,3.28,7.29,['22 Nov 2020 11:19:59']
112,2374583,Bubaque,GW,11.28,-15.83,301.89,29.0,84.0,68,100,3.48,7.73,['22 Nov 2020 11:19:59']
113,2278158,Buchanan,LR,5.88,-10.05,301.15,28.0,82.0,74,75,2.6,5.78,['22 Nov 2020 11:19:59']
114,161022,Bugene,TZ,-1.59,31.14,292.38,19.0,67.0,79,99,1.39,3.09,['22 Nov 2020 11:19:59']
115,217834,Bukama,CD,-9.2,25.85,300.31,27.0,81.0,74,36,0.56,1.24,['22 Nov 2020 11:19:59']
116,894701,Bulawayo,ZW,-20.15,28.58,298.86,26.0,78.0,46,100,1.09,2.42,['22 Nov 2020 11:19:59']
117,107304,Buraidah,SA,26.33,43.98,294.15,21.0,70.0,52,0,4.1,9.11,['22 Nov 2020 11:19:59']
118,2075265,Busselton,AU,-33.65,115.33,289.04,16.0,61.0,67,90,4.33,9.62,['22 Nov 2020 11:19:59']
119,217570,Buta,CD,2.79,24.73,299.48,26.0,79.0,68,100,1.23,2.73,['22 Nov 2020 11:19:59']
120,2110227,Butaritari,KI,3.07,172.79,300.0,27.0,80.0,78,100,5.99,13.31,['22 Nov 2020 11:19:59']
121,3404558,Cabedelo,BR,-6.98,-34.83,303.15,30.0,86.0,58,75,5.1,11.33,['22 Nov 2020 11:19:59']
122,3985710,Cabo San Lucas,MX,22.89,-109.91,298.15,25.0,77.0,41,5,1.5,3.33,['22 Nov 2020 11:19:59']
123,618454,Călăraşi,MD,47.25,28.31,277.08,4.0,39.0,60,0,1.5,3.33,['22 Nov 2020 11:19:59']
124,4149635,Callaway,US,30.15,-85.57,295.98,23.0,73.0,68,90,4.1,9.11,['22 Nov 2020 11:19:59']
125,3382226,Camopi,GF,3.17,-52.32,304.41,31.0,88.0,59,96,2.36,5.24,['22 Nov 2020 11:19:59']
126,749778,Çanakkale Province,TR,40.08,26.83,285.15,12.0,54.0,62,75,7.2,16.0,['22 Nov 2020 11:19:59']
127,2302357,Cape Coast,GH,5.11,-1.25,300.79,28.0,82.0,78,78,6.29,13.98,['22 Nov 2020 11:19:59']
128,3369157,Cape Town,ZA,-33.93,18.42,292.61,19.0,67.0,63,20,9.8,21.78,['22 Nov 2020 11:19:59']
129,3466980,Caravelas,BR,-17.71,-39.25,297.37,24.0,76.0,79,100,3.65,8.11,['22 Nov 2020 11:19:59']
130,3028640,Arrondissement de Carcassonne,FR,43.25,2.17,283.65,11.0,51.0,57,0,3.1,6.89,['22 Nov 2020 11:19:59']
131,2074865,Carnarvon,AU,-24.87,113.63,296.15,23.0,73.0,78,0,9.3,20.67,['22 Nov 2020 11:19:59']
132,3402648,Carutapera,BR,-1.2,-46.02,304.95,32.0,89.0,55,25,5.04,11.2,['22 Nov 2020 11:19:59']
133,1718214,Casambalangan,PH,18.38,122.13,298.5,26.0,78.0,80,30,5.37,11.93,['22 Nov 2020 11:19:59']
134,3466704,Castro,BR,-24.79,-50.01,296.59,23.0,74.0,54,7,0.99,2.2,['22 Nov 2020 11:19:59']
135,2373526,Catió,GW,11.28,-15.25,305.78,33.0,91.0,46,100,2.37,5.27,['22 Nov 2020 11:19:59']
136,3382160,Cayenne,GF,4.93,-52.33,301.15,28.0,82.0,83,90,3.6,8.0,['22 Nov 2020 11:19:59']
137,3125212,Chantada,ES,42.61,-7.77,288.24,15.0,59.0,51,0,0.5,1.11,['22 Nov 2020 11:19:59']
138,3466307,Chapada dos Guimarães,BR,-15.46,-55.75,311.15,38.0,100.0,24,40,2.6,5.78,['22 Nov 2020 11:19:59']
139,1274468,Chetwayi,IN,10.53,76.05,299.15,26.0,79.0,74,12,3.77,8.38,['22 Nov 2020 11:19:59']
140,2126199,Cherskiy,RU,68.75,161.3,257.92,-15.0,5.0,94,100,2.0,4.44,['22 Nov 2020 11:19:59']
141,5821086,Cheyenne,US,41.14,-104.82,271.74,-2.0,29.0,42,1,4.1,9.11,['22 Nov 2020 11:19:59']
142,3920244,Chulumani,BO,-16.41,-67.53,296.93,24.0,75.0,55,54,2.27,5.04,['22 Nov 2020 11:19:59']
143,3443061,Chui,UY,-33.7,-53.46,295.48,22.0,72.0,52,0,4.02,8.93,['22 Nov 2020 11:19:59']
144,3466165,Cidreira,BR,-30.18,-50.21,294.24,21.0,70.0,59,1,4.83,10.73,['22 Nov 2020 11:19:59']
145,3645532,Ciudad Bolivar,VE,8.12,-63.55,303.1,30.0,86.0,63,100,2.67,5.93,['22 Nov 2020 11:19:59']
146,2519382,Cocentaina,ES,38.74,-0.44,286.83,14.0,57.0,71,0,4.47,9.93,['22 Nov 2020 11:19:59']
147,3576994,Cockburn Town,TC,21.46,-71.14,299.15,26.0,79.0,88,75,3.6,8.0,['22 Nov 2020 11:19:59']
148,2171099,Codrington,AU,-38.27,141.97,287.64,14.0,58.0,93,94,3.66,8.13,['22 Nov 2020 11:19:59']
149,3894406,Coihueco,CL,-36.62,-71.83,295.15,22.0,72.0,46,0,4.6,10.22,['22 Nov 2020 11:19:59']
150,2886242,Cologne,DE,50.93,6.95,282.62,9.0,49.0,93,90,1.0,2.22,['22 Nov 2020 11:19:59']
151,3919720,Colquechaca,BO,-18.67,-66.02,279.42,6.0,43.0,75,91,4.02,8.93,['22 Nov 2020 11:19:59']
152,3385077,Conde,BR,-7.26,-34.91,303.15,30.0,86.0,58,75,5.1,11.33,['22 Nov 2020 11:19:59']
153,3893726,Constitución,CL,-35.33,-72.42,291.93,19.0,66.0,49,100,5.12,11.38,['22 Nov 2020 11:19:59']
154,3893629,Coquimbo,CL,-29.95,-71.34,290.15,17.0,63.0,67,20,6.2,13.78,['22 Nov 2020 11:19:59']
155,5418104,Cortez,US,37.35,-108.59,277.77,4.0,40.0,41,1,1.5,3.33,['22 Nov 2020 11:19:59']
156,3465329,Coruripe,BR,-10.13,-36.18,302.06,29.0,84.0,60,7,5.47,12.16,['22 Nov 2020 11:19:59']
157,2394819,Cotonou,BJ,6.37,2.42,304.15,31.0,88.0,74,40,5.7,12.67,['22 Nov 2020 11:19:59']
158,4012593,Creel,MX,27.75,-107.63,288.67,16.0,60.0,36,6,1.59,3.53,['22 Nov 2020 11:19:59']
159,1047660,Cuamba,MZ,-14.8,36.54,303.13,30.0,86.0,40,74,1.39,3.09,['22 Nov 2020 11:19:59']
160,3401148,Cururupu,BR,-1.83,-44.87,301.35,28.0,83.0,80,70,3.52,7.82,['22 Nov 2020 11:19:59']
161,2422442,Dabola,GN,10.75,-11.12,306.02,33.0,91.0,23,0,1.74,3.87,['22 Nov 2020 11:19:59']
162,1180729,Dalbandin,PK,28.89,64.41,288.59,16.0,60.0,32,30,1.55,3.44,['22 Nov 2020 11:19:59']
163,2290412,Daoukro,CI,7.06,-3.96,304.46,31.0,88.0,52,42,0.8,1.78,['22 Nov 2020 11:19:59']
164,3021717,Darnétal,FR,49.45,1.15,283.54,11.0,51.0,87,90,1.5,3.33,['22 Nov 2020 11:19:59']
165,1337612,Dhidhdhoo,MV,6.88,73.1,301.35,28.0,83.0,73,21,5.05,11.22,['22 Nov 2020 11:19:59']
166,1714733,Dingle,PH,11.0,122.67,297.27,24.0,75.0,88,0,3.76,8.36,['22 Nov 2020 11:19:59']
167,3438753,Doctor Juan Manuel Frutos,PY,-25.37,-55.8,308.29,35.0,95.0,23,0,1.8,4.0,['22 Nov 2020 11:19:59']
168,1024696,Dondo,MZ,-19.61,34.74,301.07,28.0,82.0,78,0,7.2,16.0,['22 Nov 2020 11:19:59']
169,1812256,Dongsheng,CN,39.82,109.98,262.09,-11.0,12.0,87,9,3.14,6.98,['22 Nov 2020 11:19:59']
170,2780741,Dornbirn,AT,47.42,9.73,276.82,4.0,39.0,93,20,1.0,2.22,['22 Nov 2020 11:19:59']
171,1272140,Dwārka,IN,22.24,68.97,297.28,24.0,75.0,55,0,5.26,11.69,['22 Nov 2020 11:19:59']
172,1006984,East London,ZA,-33.02,27.91,292.15,19.0,66.0,82,0,4.1,9.11,['22 Nov 2020 11:19:59']
173,4192800,Eatonton,US,33.33,-83.39,291.54,18.0,65.0,82,90,1.15,2.56,['22 Nov 2020 11:19:59']
174,2932924,Ehingen,DE,48.28,9.73,277.23,4.0,39.0,60,75,2.1,4.67,['22 Nov 2020 11:19:59']
175,2343641,Ekpoma,NG,6.74,6.14,303.85,31.0,87.0,43,90,1.94,4.31,['22 Nov 2020 11:19:59']
176,2231881,Eséka,CM,3.65,10.77,299.7,27.0,80.0,81,39,3.03,6.73,['22 Nov 2020 11:19:59']
177,3697083,Eten,PE,-6.91,-79.86,295.15,22.0,72.0,64,0,4.6,10.22,['22 Nov 2020 11:19:59']
178,60019,Eyl,SO,7.98,49.82,299.82,27.0,80.0,67,100,2.8,6.22,['22 Nov 2020 11:19:59']
179,4034551,Faanui,PF,-16.48,-151.75,299.73,27.0,80.0,73,60,3.24,7.2,['22 Nov 2020 11:19:59']
180,4034496,Fare,PF,-16.7,-151.02,299.88,27.0,80.0,73,95,2.81,6.24,['22 Nov 2020 11:19:59']
181,110690,Faya,SA,18.39,42.45,293.15,20.0,68.0,10,0,5.1,11.33,['22 Nov 2020 11:19:59']
182,2517750,Felanitx,ES,39.47,3.15,288.4,15.0,59.0,51,20,5.7,12.67,['22 Nov 2020 11:19:59']
183,3123493,Ferrol,ES,43.48,-8.24,287.97,15.0,59.0,72,0,1.34,2.98,['22 Nov 2020 11:19:59']
184,3156980,Florø,NO,61.6,5.03,280.15,7.0,45.0,70,75,9.3,20.67,['22 Nov 2020 11:19:59']
185,2924585,Friedrichshafen,DE,47.65,9.48,276.57,3.0,38.0,86,100,0.54,1.2,['22 Nov 2020 11:19:59']
186,3438102,Fuerte Olimpo,PY,-21.04,-57.87,314.38,41.0,106.0,17,0,0.78,1.73,['22 Nov 2020 11:19:59']
187,1863997,Fukuechō,JP,32.69,128.84,287.3,14.0,57.0,80,30,11.87,26.38,['22 Nov 2020 11:19:59']
188,2342490,Funtua,NG,11.52,7.31,302.91,30.0,86.0,26,68,1.9,4.22,['22 Nov 2020 11:19:59']
189,2400547,Gamba,GA,-2.65,10.0,298.38,25.0,77.0,90,100,3.27,7.27,['22 Nov 2020 11:19:59']
190,2231319,Garoua Boulaï,CM,5.88,14.55,300.35,27.0,81.0,41,86,1.97,4.38,['22 Nov 2020 11:19:59']
191,293842,Kiryat Gat,IL,31.61,34.76,290.91,18.0,64.0,100,23,2.08,4.62,['22 Nov 2020 11:19:59']
192,1735106,George Town,MY,5.41,100.34,298.51,26.0,78.0,94,20,3.48,7.73,['22 Nov 2020 11:19:59']
193,2070998,Geraldton,AU,-28.77,114.6,292.15,19.0,66.0,77,0,4.6,10.22,['22 Nov 2020 11:19:59']
194,1253628,Ginda,IN,30.69,78.49,281.6,8.0,47.0,46,100,1.4,3.11,['22 Nov 2020 11:19:59']
195,5962442,Goderich,CA,43.75,-81.72,274.12,1.0,34.0,80,100,5.54,12.31,['22 Nov 2020 11:19:59']
196,2456917,Goundam,ML,16.41,-3.67,305.91,33.0,91.0,11,0,4.68,10.4,['22 Nov 2020 11:19:59']
197,2444219,Gouré,NE,13.98,10.27,302.59,29.0,85.0,20,0,0.45,1.0,['22 Nov 2020 11:19:59']
198,1000543,Graaff-Reinet,ZA,-32.25,24.53,293.71,21.0,69.0,57,100,4.02,8.93,['22 Nov 2020 11:19:59']
199,934479,Grand Gaube,MU,-20.01,57.66,297.59,24.0,76.0,75,34,1.34,2.98,['22 Nov 2020 11:19:59']
200,2288105,Grand-Lahou,CI,5.14,-5.02,300.42,27.0,81.0,80,32,3.53,7.84,['22 Nov 2020 11:19:59']
201,3381538,Grand-Santi,GF,4.25,-54.38,303.19,30.0,86.0,67,99,1.91,4.24,['22 Nov 2020 11:19:59']
202,3416888,Grindavik,IS,63.84,-22.43,274.15,1.0,34.0,76,75,3.6,8.0,['22 Nov 2020 11:19:59']
203,3175771,Grottammare,IT,42.99,13.86,279.54,7.0,44.0,73,0,0.79,1.76,['22 Nov 2020 11:19:59']
204,4005539,Guadalajara,MX,20.67,-103.33,291.23,18.0,65.0,59,5,1.5,3.33,['22 Nov 2020 11:19:59']
205,3557758,Guane,CU,22.2,-84.09,300.19,27.0,81.0,68,9,4.63,10.29,['22 Nov 2020 11:19:59']
206,1244926,Hambantota,LK,6.12,81.12,298.15,25.0,77.0,100,75,1.0,2.22,['22 Nov 2020 11:19:59']
207,1529484,Kumul,CN,42.8,93.45,266.68,-7.0,20.0,71,0,1.41,3.13,['22 Nov 2020 11:19:59']
208,4513583,Hamilton,US,39.18,-84.53,280.47,7.0,45.0,93,90,4.1,9.11,['22 Nov 2020 11:19:59']
209,2276492,Harper,LR,4.38,-7.72,300.86,28.0,82.0,77,64,4.34,9.64,['22 Nov 2020 11:19:59']
210,2647311,Haverfordwest,GB,51.8,-4.97,282.6,9.0,49.0,71,87,4.6,10.22,['22 Nov 2020 11:19:59']
211,997140,Heilbron,ZA,-27.28,27.97,293.83,21.0,69.0,71,35,5.42,12.04,['22 Nov 2020 11:19:59']
212,3356832,Henties Bay,NA,-22.12,14.28,290.93,18.0,64.0,82,3,3.13,6.96,['22 Nov 2020 11:19:59']
213,3366880,Hermanus,ZA,-34.42,19.23,292.04,19.0,66.0,71,60,0.89,1.98,['22 Nov 2020 11:19:59']
214,5855927,Hilo,US,19.73,-155.09,295.31,22.0,72.0,88,90,4.1,9.11,['22 Nov 2020 11:19:59']
215,1282256,Hithadhoo,MV,-0.6,73.08,301.25,28.0,83.0,77,92,4.26,9.47,['22 Nov 2020 11:19:59']
216,2163355,Hobart,AU,-42.88,147.33,284.67,12.0,53.0,87,75,1.4,3.11,['22 Nov 2020 11:19:59']
217,57000,Hobyo,SO,5.35,48.53,300.39,27.0,81.0,71,60,6.93,15.4,['22 Nov 2020 11:19:59']
218,2630299,Hofn,IS,64.25,-15.21,273.15,0.0,32.0,92,90,1.5,3.33,['22 Nov 2020 11:19:59']
219,3372988,Horta,PT,38.53,-28.63,293.15,20.0,68.0,64,20,4.6,10.22,['22 Nov 2020 11:19:59']
220,3939761,Hualmay,PE,-11.1,-77.61,294.11,21.0,70.0,64,9,4.9,10.89,['22 Nov 2020 11:19:59']
221,3939168,Huarmey,PE,-10.07,-78.15,294.37,21.0,70.0,65,1,5.23,11.62,['22 Nov 2020 11:19:59']
222,3664078,Humaitá,BR,-7.51,-63.02,309.11,36.0,97.0,43,78,1.26,2.8,['22 Nov 2020 11:19:59']
223,4068590,Huntsville,US,34.73,-86.59,291.39,18.0,65.0,63,20,3.6,8.0,['22 Nov 2020 11:19:59']
224,361291,Hurghada,EG,27.26,33.81,297.15,24.0,75.0,38,0,2.1,4.67,['22 Nov 2020 11:19:59']
225,2629833,Husavik,IS,66.04,-17.34,272.15,-1.0,30.0,86,75,3.6,8.0,['22 Nov 2020 11:19:59']
226,889942,Hwange,ZW,-18.37,26.5,305.43,32.0,90.0,36,100,2.15,4.78,['22 Nov 2020 11:19:59']
227,287832,Ibrā’,OM,22.69,58.53,292.48,19.0,67.0,48,0,3.64,8.09,['22 Nov 2020 11:19:59']
228,1064234,Ikongo,MG,-21.88,47.43,295.51,22.0,72.0,90,88,1.01,2.24,['22 Nov 2020 11:19:59']
229,215976,Ilebo,CD,-4.32,20.58,301.97,29.0,84.0,68,70,0.76,1.69,['22 Nov 2020 11:19:59']
230,4997130,Ingham,US,42.6,-84.38,273.41,0.0,32.0,96,90,2.1,4.67,['22 Nov 2020 11:19:59']
231,1045114,Inhambane,MZ,-23.86,35.38,301.04,28.0,82.0,69,20,6.2,13.78,['22 Nov 2020 11:19:59']
232,3671450,Inírida,CO,3.87,-67.92,302.61,29.0,85.0,70,95,1.54,3.42,['22 Nov 2020 11:19:59']
233,2315417,Inongo,CD,-1.95,18.27,298.62,26.0,78.0,78,100,1.52,3.38,['22 Nov 2020 11:19:59']
234,5983720,Iqaluit,CA,63.75,-68.51,266.15,-7.0,19.0,62,75,3.1,6.89,['22 Nov 2020 11:19:59']
235,3696183,Iquitos,PE,-3.75,-73.25,306.15,33.0,91.0,55,40,1.5,3.33,['22 Nov 2020 11:19:59']
236,3381428,Iracoubo,GF,5.48,-53.2,300.32,27.0,81.0,85,93,4.97,11.04,['22 Nov 2020 11:19:59']
237,3608828,Iralaya,HN,15.0,-83.23,300.56,27.0,81.0,83,15,3.48,7.73,['22 Nov 2020 11:19:59']
238,1710519,Isabela,PH,6.71,121.97,298.15,25.0,77.0,100,75,1.0,2.22,['22 Nov 2020 11:19:59']
239,196231,Isiolo,KE,0.35,37.58,295.97,23.0,73.0,65,26,3.65,8.11,['22 Nov 2020 11:19:59']
240,215771,Isiro,CD,2.77,27.62,297.09,24.0,75.0,77,41,1.34,2.98,['22 Nov 2020 11:19:59']
241,3526756,Isla Mujeres,MX,21.23,-86.73,301.03,28.0,82.0,74,40,5.1,11.33,['22 Nov 2020 11:19:59']
242,158974,Issenye,TZ,-2.0,34.33,294.29,21.0,70.0,84,81,1.17,2.6,['22 Nov 2020 11:19:59']
243,3460940,Itacaré,BR,-14.28,-39.0,300.15,27.0,81.0,83,75,1.5,3.33,['22 Nov 2020 11:19:59']
244,3397967,Itaituba,BR,-4.28,-55.98,303.15,30.0,86.0,70,40,2.6,5.78,['22 Nov 2020 11:19:59']
245,3460764,Itaparica,BR,-12.89,-38.68,302.15,29.0,84.0,70,40,6.7,14.89,['22 Nov 2020 11:19:59']
246,3393692,Itarema,BR,-2.92,-39.92,304.02,31.0,88.0,55,33,8.2,18.22,['22 Nov 2020 11:19:59']
247,4004293,Ixtapa,MX,20.7,-105.2,299.49,26.0,79.0,69,5,0.92,2.04,['22 Nov 2020 11:19:59']
248,3460355,Jaciara,BR,-15.97,-54.97,309.35,36.0,97.0,29,6,1.87,4.16,['22 Nov 2020 11:19:59']
249,2287778,Jacqueville,CI,5.21,-4.41,300.15,27.0,81.0,78,75,4.1,9.11,['22 Nov 2020 11:19:59']
250,2336589,Jalingo,NG,8.88,11.37,307.76,34.0,94.0,25,59,2.29,5.09,['22 Nov 2020 11:19:59']
251,86049,Jalu,LY,29.03,21.55,293.38,20.0,68.0,45,8,4.38,9.73,['22 Nov 2020 11:19:59']
252,5122534,Jamestown,US,42.1,-79.24,274.23,1.0,34.0,92,90,6.2,13.78,['22 Nov 2020 11:19:59']
253,223816,Djibouti,DJ,11.5,42.5,301.15,28.0,82.0,65,1,1.5,3.33,['22 Nov 2020 11:19:59']
254,56166,Jilib,SO,0.49,42.79,299.19,26.0,79.0,78,85,3.66,8.13,['22 Nov 2020 11:19:59']
255,2335953,Jos,NG,9.92,8.9,300.43,27.0,81.0,29,70,2.45,5.44,['22 Nov 2020 11:19:59']
256,215668,Kabalo,CD,-6.05,26.92,298.9,26.0,78.0,76,2,0.75,1.67,['22 Nov 2020 11:19:59']
257,1214965,Kabanjahe,ID,3.1,98.49,299.15,26.0,79.0,94,40,1.5,3.33,['22 Nov 2020 11:19:59']
258,215605,Kabare,CD,-2.47,28.82,291.93,19.0,66.0,81,41,0.28,0.62,['22 Nov 2020 11:19:59']
259,2386042,Kabo,CF,7.7,18.63,304.67,32.0,89.0,29,61,1.23,2.73,['22 Nov 2020 11:19:59']
260,2335727,Kaduna,NG,10.52,7.44,305.21,32.0,90.0,20,54,2.08,4.62,['22 Nov 2020 11:19:59']
261,158597,Kahama,TZ,-3.83,32.6,297.21,24.0,75.0,66,47,0.3,0.67,['22 Nov 2020 11:19:59']
262,310858,Kahramanmaraş Province,TR,38.0,37.0,283.15,10.0,50.0,71,0,1.5,3.33,['22 Nov 2020 11:19:59']
263,5847411,Kahului,US,20.89,-156.47,295.46,22.0,72.0,73,40,9.3,20.67,['22 Nov 2020 11:19:59']
264,933390,Kalakamati,BW,-20.59,27.31,300.15,27.0,81.0,57,40,4.6,10.22,['22 Nov 2020 11:19:59']
265,232571,Kalangala,UG,-0.31,32.23,297.15,24.0,75.0,73,20,4.6,10.22,['22 Nov 2020 11:19:59']
266,214974,Kalemie,CD,-5.95,29.19,297.49,24.0,76.0,76,46,0.64,1.42,['22 Nov 2020 11:19:59']
267,2393693,Kandi,BJ,11.13,2.94,307.4,34.0,94.0,19,8,2.61,5.8,['22 Nov 2020 11:19:59']
268,2455735,Kangaba,ML,11.93,-8.42,308.21,35.0,95.0,13,15,3.1,6.89,['22 Nov 2020 11:19:59']
269,654440,Kangasala,FI,61.46,24.08,277.95,5.0,41.0,80,90,4.6,10.22,['22 Nov 2020 11:19:59']
270,214389,Kaniama,CD,-7.57,24.18,296.47,23.0,74.0,91,100,0.19,0.42,['22 Nov 2020 11:19:59']
271,1737185,Kapit,MY,2.02,112.93,297.33,24.0,76.0,92,100,0.49,1.09,['22 Nov 2020 11:19:59']
272,158321,Karema,TZ,-6.82,30.44,296.98,24.0,75.0,76,23,0.53,1.18,['22 Nov 2020 11:19:59']
273,2315057,Kasangulu,CD,-4.59,15.17,298.15,25.0,77.0,83,40,2.1,4.67,['22 Nov 2020 11:19:59']
274,213940,Kasongo,CD,-4.45,26.67,298.29,25.0,77.0,79,34,1.22,2.71,['22 Nov 2020 11:19:59']
275,2315026,Kasongo-Lunda,CD,-6.47,16.82,299.65,27.0,80.0,84,49,1.46,3.24,['22 Nov 2020 11:19:59']
276,1153035,Kathu,TH,7.92,98.33,301.11,28.0,82.0,88,75,2.1,4.67,['22 Nov 2020 11:19:59']
277,1267390,Kavaratti,IN,10.57,72.64,301.08,28.0,82.0,67,11,3.07,6.82,['22 Nov 2020 11:19:59']
278,2094342,Kavieng,PG,-2.57,150.8,300.91,28.0,82.0,71,83,4.69,10.42,['22 Nov 2020 11:19:59']
279,2412992,Kerewan,GM,13.49,-16.09,306.15,33.0,91.0,52,40,3.1,6.89,['22 Nov 2020 11:19:59']
280,2419622,Kérouané,GN,9.27,-9.02,305.87,33.0,91.0,24,40,2.15,4.78,['22 Nov 2020 11:19:59']
281,550726,Khanino,RU,54.21,36.62,271.15,-2.0,28.0,92,90,4.0,8.89,['22 Nov 2020 11:19:59']
282,2022572,Khatanga,RU,71.97,102.5,262.79,-11.0,13.0,95,100,8.64,19.2,['22 Nov 2020 11:19:59']
283,2022463,Khilok,RU,51.37,110.47,264.91,-8.0,17.0,94,98,5.43,12.07,['22 Nov 2020 11:19:59']
284,3356213,Khorixas,NA,-20.37,14.97,305.1,32.0,90.0,16,0,10.92,24.27,['22 Nov 2020 11:19:59']
285,202068,Kibungo,RW,-2.16,30.54,294.89,22.0,71.0,69,40,1.0,2.22,['22 Nov 2020 11:19:59']
286,2455290,Kidal,ML,18.44,1.41,303.8,31.0,87.0,12,1,2.89,6.42,['22 Nov 2020 11:19:59']
287,2314705,Kikwit,CD,-5.04,18.82,300.39,27.0,81.0,77,52,1.02,2.27,['22 Nov 2020 11:19:59']
288,922806,Kipushi,CD,-11.77,27.23,294.56,22.0,71.0,88,72,1.36,3.02,['22 Nov 2020 11:19:59']
289,212730,Kisangani,CD,0.52,25.2,300.04,27.0,80.0,74,55,1.9,4.22,['22 Nov 2020 11:19:59']
290,7626381,Klæbu,NO,63.3,10.48,277.83,4.0,40.0,81,75,12.3,27.33,['22 Nov 2020 11:19:59']
291,2618795,Klaksvík,FO,62.23,-6.59,277.15,4.0,39.0,86,63,6.7,14.89,['22 Nov 2020 11:19:59']
292,988698,Knysna,ZA,-34.04,23.05,290.15,17.0,63.0,82,40,1.0,2.22,['22 Nov 2020 11:19:59']
293,5866583,Saint Paul Harbor,US,57.79,-152.41,270.15,-3.0,27.0,79,1,3.6,8.0,['22 Nov 2020 11:19:59']
294,1503037,Kodinsk,RU,58.69,99.18,266.55,-7.0,20.0,96,100,3.16,7.02,['22 Nov 2020 11:19:59']
295,2454955,Kolokani,ML,13.57,-8.03,307.34,34.0,94.0,11,54,4.14,9.2,['22 Nov 2020 11:19:59']
296,212360,Kongolo,CD,-5.38,27.0,298.55,26.0,78.0,85,63,1.2,2.67,['22 Nov 2020 11:19:59']
297,2334008,Kontagora,NG,10.4,5.47,307.78,34.0,94.0,19,66,2.52,5.6,['22 Nov 2020 11:19:59']
298,785756,Kostolac,RS,44.71,21.17,275.27,2.0,36.0,71,0,0.5,1.11,['22 Nov 2020 11:19:59']
299,1090225,Koungou,YT,-12.73,45.2,301.15,28.0,82.0,74,75,2.6,5.78,['22 Nov 2020 11:19:59']
300,2358738,Koupéla,BF,12.18,-0.35,307.19,34.0,93.0,12,22,3.08,6.84,['22 Nov 2020 11:19:59']
301,2418437,Kouroussa,GN,10.65,-9.88,307.64,34.0,94.0,17,23,1.79,3.98,['22 Nov 2020 11:19:59']
302,2454268,Koutiala,ML,12.39,-5.46,307.7,34.0,94.0,11,24,3.35,7.44,['22 Nov 2020 11:19:59']
303,2229761,Kribi,CM,2.95,9.92,300.76,28.0,82.0,79,98,3.93,8.73,['22 Nov 2020 11:19:59']
304,986717,Kruisfontein,ZA,-34.0,24.73,292.04,19.0,66.0,77,100,1.34,2.98,['22 Nov 2020 11:19:59']
305,1222396,Kuah,MY,6.33,99.84,298.15,25.0,77.0,100,40,4.1,9.11,['22 Nov 2020 11:19:59']
306,1735634,Kuching,MY,1.55,110.33,298.15,25.0,77.0,94,40,1.0,2.22,['22 Nov 2020 11:19:59']
307,1337607,Kudahuvadhoo,MV,2.67,72.89,301.8,29.0,84.0,71,10,3.61,8.02,['22 Nov 2020 11:19:59']
308,305810,Kula,TR,38.55,28.65,281.55,8.0,47.0,54,0,1.2,2.67,['22 Nov 2020 11:19:59']
309,1501377,Kungurtug,RU,50.6,97.52,259.47,-14.0,7.0,89,21,0.55,1.22,['22 Nov 2020 11:19:59']
310,2068110,Kununurra,AU,-15.77,128.73,300.15,27.0,81.0,83,100,3.6,8.0,['22 Nov 2020 11:19:59']
311,2057087,Kupang,ID,-10.17,123.58,301.09,28.0,82.0,75,100,4.18,9.29,['22 Nov 2020 11:19:59']
312,371745,Kutum,SD,14.2,24.67,296.38,23.0,74.0,20,27,4.67,10.38,['22 Nov 2020 11:19:59']
313,3655131,La Libertad,EC,-2.23,-80.9,295.38,22.0,72.0,73,19,3.42,7.6,['22 Nov 2020 11:19:59']
314,3336897,La Rioja,ES,42.25,-2.5,285.85,13.0,55.0,54,0,1.0,2.22,['22 Nov 2020 11:19:59']
315,3006767,La Roche-sur-Yon,FR,46.67,-1.43,285.71,13.0,55.0,50,0,1.5,3.33,['22 Nov 2020 11:19:59']
316,1733782,Labuan,MY,5.28,115.24,300.54,27.0,81.0,88,20,1.0,2.22,['22 Nov 2020 11:19:59']
317,3372964,Lagoa,PT,39.05,-27.98,290.36,17.0,63.0,75,94,4.92,10.93,['22 Nov 2020 11:19:59']
318,2332453,Lagos,NG,6.58,3.75,304.39,31.0,88.0,57,71,2.67,5.93,['22 Nov 2020 11:19:59']
319,5364271,Laguna,US,38.42,-121.42,276.14,3.0,37.0,86,1,1.85,4.11,['22 Nov 2020 11:19:59']
320,3618522,Laguna de Perlas,NI,12.34,-83.67,299.15,26.0,79.0,94,75,4.65,10.33,['22 Nov 2020 11:19:59']
321,332288,Lalibela,ET,12.03,39.03,288.76,16.0,60.0,32,36,4.74,10.53,['22 Nov 2020 11:19:59']
322,189741,Lamu,KE,-2.27,40.9,301.15,28.0,82.0,78,1,3.1,6.89,['22 Nov 2020 11:19:59']
323,3175096,Laas,IT,46.62,10.7,276.25,3.0,38.0,64,75,0.3,0.67,['22 Nov 2020 11:19:59']
324,4031637,Lavrentiya,RU,65.58,-171.0,272.28,-1.0,30.0,98,100,2.87,6.38,['22 Nov 2020 11:19:59']
325,3577879,Layou,VC,13.2,-61.27,302.15,29.0,84.0,74,40,1.5,3.33,['22 Nov 2020 11:19:59']
326,935616,Le Port,RE,-20.94,55.29,294.22,21.0,70.0,73,90,6.7,14.89,['22 Nov 2020 11:19:59']
327,3883457,Lebu,CL,-37.62,-73.65,288.64,16.0,60.0,69,100,3.23,7.18,['22 Nov 2020 11:19:59']
328,1521379,Lenger,KZ,42.18,69.88,267.15,-6.0,21.0,92,81,2.0,4.44,['22 Nov 2020 11:19:59']
329,3379316,Lethem,GY,3.38,-59.8,301.15,28.0,82.0,74,90,5.1,11.33,['22 Nov 2020 11:19:59']
330,2399697,Libreville,GA,0.39,9.45,298.15,25.0,77.0,88,40,2.6,5.78,['22 Nov 2020 11:19:59']
331,1043893,Lichinga,MZ,-13.31,35.24,298.97,26.0,78.0,47,20,3.6,8.0,['22 Nov 2020 11:19:59']
332,3147467,Lillesand,NO,58.25,8.38,279.93,7.0,44.0,75,20,6.2,13.78,['22 Nov 2020 11:19:59']
333,5072006,Lincoln,US,40.8,-96.67,279.25,6.0,43.0,56,1,4.1,9.11,['22 Nov 2020 11:19:59']
334,3196331,Ljubovija,RS,44.19,19.38,274.78,2.0,35.0,77,75,1.32,2.93,['22 Nov 2020 11:19:59']
335,2258378,Loandjili,CG,-4.76,11.86,299.15,26.0,79.0,94,75,2.1,4.67,['22 Nov 2020 11:19:59']
336,211647,Lodja,CD,-3.48,23.43,301.06,28.0,82.0,65,77,0.3,0.67,['22 Nov 2020 11:19:59']
337,189280,Lodwar,KE,3.12,35.6,306.47,33.0,92.0,25,0,4.96,11.02,['22 Nov 2020 11:19:59']
338,4566022,Loíza,PR,18.43,-65.88,301.53,28.0,83.0,66,75,4.1,9.11,['22 Nov 2020 11:19:59']
339,5367788,Lompoc,US,34.64,-120.46,280.1,7.0,45.0,80,1,1.5,3.33,['22 Nov 2020 11:19:59']
340,2092164,Lorengau,PG,-2.02,147.27,300.97,28.0,82.0,79,100,4.19,9.31,['22 Nov 2020 11:19:59']
341,2514651,Los Llanos de Aridane,ES,28.66,-17.92,295.73,23.0,73.0,73,75,3.1,6.89,['22 Nov 2020 11:19:59']
342,2240449,Luanda,AO,-8.84,13.23,301.15,28.0,82.0,74,20,4.6,10.22,['22 Nov 2020 11:19:59']
343,1655559,Luang Prabang,LA,19.89,102.13,294.37,21.0,70.0,66,4,0.25,0.56,['22 Nov 2020 11:19:59']
344,2309528,Luba,GQ,3.46,8.55,302.15,29.0,84.0,74,40,4.1,9.11,['22 Nov 2020 11:19:59']
345,922704,Lubumbashi,CD,-11.66,27.48,295.32,22.0,72.0,84,92,1.2,2.67,['22 Nov 2020 11:19:59']
346,145724,Lucapa,AO,-8.42,20.74,297.09,24.0,75.0,91,74,1.09,2.42,['22 Nov 2020 11:19:59']
347,3355672,Lüderitz,NA,-26.65,15.16,292.78,19.0,67.0,56,24,8.41,18.69,['22 Nov 2020 11:19:59']
348,1637001,Luwuk,ID,-0.95,122.79,299.61,27.0,80.0,75,100,1.24,2.76,['22 Nov 2020 11:19:59']
349,703079,Lykhivka,UA,48.69,33.92,273.6,1.0,33.0,89,63,3.2,7.11,['22 Nov 2020 11:19:59']
350,3377301,Mabaruma,GY,8.2,-59.78,299.9,27.0,80.0,92,100,2.22,4.93,['22 Nov 2020 11:19:59']
351,2159220,Mackay,AU,-21.15,149.2,296.0,23.0,73.0,69,40,5.1,11.33,['22 Nov 2020 11:19:59']
352,934322,Mahébourg,MU,-20.41,57.7,297.15,24.0,75.0,88,75,3.6,8.0,['22 Nov 2020 11:19:59']
353,4034307,Mahina,PF,-17.51,-149.49,297.09,24.0,75.0,78,20,1.5,3.33,['22 Nov 2020 11:19:59']
354,2514301,Mahon,ES,39.89,4.27,287.15,14.0,57.0,58,40,6.2,13.78,['22 Nov 2020 11:19:59']
355,2399371,Makokou,GA,0.57,12.86,301.15,28.0,82.0,69,40,1.41,3.13,['22 Nov 2020 11:19:59']
356,370737,Malakal,SS,9.53,31.66,303.13,30.0,86.0,21,1,2.19,4.87,['22 Nov 2020 11:19:59']
357,2239862,Malanje,AO,-9.54,16.34,296.0,23.0,73.0,91,83,2.18,4.84,['22 Nov 2020 11:19:59']
358,2392837,Malanville,BJ,11.87,3.39,307.32,34.0,94.0,18,17,2.72,6.04,['22 Nov 2020 11:19:59']
359,304919,Malatya Province,TR,38.5,38.0,281.15,8.0,46.0,49,0,5.7,12.67,['22 Nov 2020 11:19:59']
360,3441890,Departamento de Maldonado,UY,-34.67,-54.92,298.15,25.0,77.0,50,20,4.1,9.11,['22 Nov 2020 11:19:59']
361,2417831,Mamou,GN,10.5,-12.0,304.61,32.0,89.0,25,18,1.9,4.22,['22 Nov 2020 11:19:59']
362,3381041,Mana,GF,5.66,-53.78,300.86,28.0,82.0,82,72,3.85,8.56,['22 Nov 2020 11:19:59']
363,1263968,Manali,IN,13.17,80.27,300.15,27.0,81.0,83,40,1.5,3.33,['22 Nov 2020 11:19:59']
364,3675504,Manaure,CO,11.78,-72.44,301.79,29.0,84.0,73,100,4.34,9.64,['22 Nov 2020 11:19:59']
365,187896,Mandera,KE,3.94,41.87,304.87,32.0,89.0,39,15,1.38,3.07,['22 Nov 2020 11:19:59']
366,2417795,Mandiana,GN,10.63,-8.68,308.72,36.0,96.0,14,25,2.45,5.44,['22 Nov 2020 11:19:59']
367,2313084,Mangai,CD,-4.05,19.53,300.2,27.0,81.0,79,68,1.11,2.47,['22 Nov 2020 11:19:59']
368,3421982,Maniitsoq,GL,65.42,-52.9,269.26,-4.0,25.0,89,100,2.0,4.44,['22 Nov 2020 11:19:59']
369,3663495,Manoel Urbano,BR,-8.84,-69.26,304.9,32.0,89.0,61,80,1.27,2.82,['22 Nov 2020 11:19:59']
370,209598,Manono,CD,-7.3,27.42,299.05,26.0,79.0,77,50,0.42,0.93,['22 Nov 2020 11:19:59']
371,3654410,Manta,EC,-0.95,-80.73,297.15,24.0,75.0,78,75,3.1,6.89,['22 Nov 2020 11:19:59']
372,2469255,Menzel Kamel,TN,35.62,10.67,289.15,16.0,61.0,82,40,8.2,18.22,['22 Nov 2020 11:19:59']
373,2514301,Mahon,ES,39.89,4.27,287.15,14.0,57.0,58,40,6.2,13.78,['22 Nov 2020 11:19:59']
374,1040652,Maputo,MZ,-25.97,32.59,300.07,27.0,80.0,74,20,4.6,10.22,['22 Nov 2020 11:19:59']
375,3430863,Mar del Plata,AR,-38.0,-57.56,302.15,29.0,84.0,39,0,5.1,11.33,['22 Nov 2020 11:19:59']
376,3395458,Maragogi,BR,-9.01,-35.22,301.51,28.0,83.0,61,11,4.68,10.4,['22 Nov 2020 11:19:59']
377,187725,Maralal,KE,1.1,36.7,291.58,18.0,65.0,57,38,5.75,12.78,['22 Nov 2020 11:19:59']
378,1701054,Marawi,PH,8.0,124.29,297.04,24.0,75.0,89,99,2.24,4.98,['22 Nov 2020 11:19:59']
379,2643044,Margate,GB,51.38,1.39,281.28,8.0,47.0,74,86,3.48,7.73,['22 Nov 2020 11:19:59']
380,3092472,Malbork,PL,54.04,19.03,278.33,5.0,41.0,100,65,5.73,12.73,['22 Nov 2020 11:19:59']
381,1059507,Marovoay,MG,-16.1,46.63,302.15,29.0,84.0,62,40,2.1,4.67,['22 Nov 2020 11:19:59']
382,2542997,Marrakesh,MA,31.63,-8.01,300.15,27.0,81.0,21,0,2.6,5.78,['22 Nov 2020 11:19:59']
383,352733,Marsá Maţrūḩ,EG,31.35,27.25,291.15,18.0,64.0,82,75,4.49,9.98,['22 Nov 2020 11:19:59']
384,3571913,Marsh Harbour,BS,26.54,-77.06,298.71,26.0,78.0,78,7,7.89,17.53,['22 Nov 2020 11:19:59']
385,1636022,Martapura,ID,-3.42,114.85,297.15,24.0,75.0,100,90,3.1,6.89,['22 Nov 2020 11:19:59']
386,2313002,Matadi,CD,-5.82,13.45,302.61,29.0,85.0,68,93,1.72,3.82,['22 Nov 2020 11:19:59']
387,6201424,Mataura,NZ,-46.19,168.86,278.71,6.0,42.0,94,96,0.45,1.0,['22 Nov 2020 11:19:59']
388,2409215,Mattru,SL,7.62,-11.83,303.12,30.0,86.0,63,41,1.61,3.58,['22 Nov 2020 11:19:59']
389,4362001,Mayo,US,38.89,-76.51,285.55,12.0,54.0,71,90,3.1,6.89,['22 Nov 2020 11:19:59']
390,2399001,Mayumba,GA,-3.43,10.66,298.65,26.0,78.0,88,100,3.34,7.42,['22 Nov 2020 11:19:59']
391,2312895,Mbandaka,CD,0.05,18.26,300.1,27.0,81.0,76,48,0.57,1.27,['22 Nov 2020 11:19:59']
392,2312888,Mbanza-Ngungu,CD,-5.25,14.87,295.66,23.0,73.0,97,100,1.96,4.36,['22 Nov 2020 11:19:59']
393,2308278,Mbini,GQ,1.57,9.61,300.15,27.0,81.0,94,40,4.6,10.22,['22 Nov 2020 11:19:59']
394,331259,Mēga,ET,4.05,38.3,292.94,20.0,68.0,57,51,4.67,10.38,['22 Nov 2020 11:19:59']
395,3173615,Melfi,IT,41.0,15.65,278.25,5.0,41.0,86,90,5.1,11.33,['22 Nov 2020 11:19:59']
396,1214488,Meulaboh,ID,4.14,96.13,298.16,25.0,77.0,78,100,4.24,9.42,['22 Nov 2020 11:19:59']
397,5666176,Miles City,US,46.41,-105.84,269.15,-4.0,25.0,79,1,2.6,5.78,['22 Nov 2020 11:19:59']
398,2993874,Arrondissement de Millau,FR,44.08,2.92,283.06,10.0,50.0,34,0,1.0,2.22,['22 Nov 2020 11:19:59']
399,3374462,Mindelo,CV,16.89,-24.98,301.15,28.0,82.0,58,75,7.7,17.11,['22 Nov 2020 11:19:59']
400,2330100,Minna,NG,9.61,6.56,308.71,36.0,96.0,20,7,2.03,4.51,['22 Nov 2020 11:19:59']
401,2214846,Misratah,LY,32.38,15.09,291.67,18.0,65.0,55,24,4.03,8.96,['22 Nov 2020 11:19:59']
402,3674676,Mitú,CO,1.2,-70.17,307.59,34.0,94.0,48,28,0.52,1.16,['22 Nov 2020 11:19:59']
403,330534,Mīzan Teferī,ET,6.98,35.58,291.69,18.0,65.0,88,10,0.81,1.8,['22 Nov 2020 11:19:59']
404,975436,Mmabatho,ZA,-25.85,25.63,300.15,27.0,81.0,54,40,3.6,8.0,['22 Nov 2020 11:19:59']
405,53654,Mogadishu,SO,2.04,45.34,300.23,27.0,81.0,70,99,3.8,8.44,['22 Nov 2020 11:19:59']
406,2226275,Mokolo,CM,10.74,13.8,307.15,34.0,93.0,23,0,2.21,4.91,['22 Nov 2020 11:19:59']
407,1498456,Monetnyy,RU,57.05,60.88,264.15,-9.0,16.0,61,0,2.0,4.44,['22 Nov 2020 11:19:59']
408,5127305,Monroe,US,43.15,-77.68,276.05,3.0,37.0,69,90,3.6,8.0,['22 Nov 2020 11:19:59']
409,2274895,Monrovia,LR,6.3,-10.8,301.15,28.0,82.0,74,75,2.6,5.78,['22 Nov 2020 11:19:59']
410,1037125,Montepuez,MZ,-13.13,39.0,302.13,29.0,84.0,46,67,3.81,8.47,['22 Nov 2020 11:19:59']
411,4642938,Morristown,US,36.21,-83.29,286.84,14.0,57.0,71,1,2.6,5.78,['22 Nov 2020 11:19:59']
412,3674292,Mosquera,CO,4.71,-74.23,293.15,20.0,68.0,49,40,2.1,4.67,['22 Nov 2020 11:19:59']
413,2398073,Mouila,GA,-1.87,11.06,299.15,26.0,79.0,88,90,1.62,3.6,['22 Nov 2020 11:19:59']
414,2065594,Mount Isa,AU,-20.73,139.5,297.15,24.0,75.0,38,44,3.1,6.89,['22 Nov 2020 11:19:59']
415,2427336,Moussoro,TD,13.64,16.49,305.29,32.0,90.0,18,14,3.05,6.78,['22 Nov 2020 11:19:59']
416,877747,Mtwara,TZ,-10.27,40.18,302.15,29.0,84.0,70,20,4.6,10.22,['22 Nov 2020 11:19:59']
417,3653967,Muisne,EC,0.6,-80.03,301.15,28.0,82.0,78,75,3.1,6.89,['22 Nov 2020 11:19:59']
418,2297810,Mumford,GH,5.26,-0.76,301.42,28.0,83.0,75,47,6.61,14.69,['22 Nov 2020 11:19:59']
419,1540711,Muravlenko,RU,63.79,74.52,262.47,-11.0,13.0,97,71,4.88,10.84,['22 Nov 2020 11:19:59']
420,3115824,Muros,ES,42.78,-9.06,291.48,18.0,65.0,55,0,0.45,1.0,['22 Nov 2020 11:19:59']
421,304013,Mut,TR,36.64,33.44,285.43,12.0,54.0,43,0,4.41,9.8,['22 Nov 2020 11:19:59']
422,902620,Mwinilunga,ZM,-11.74,24.43,294.41,21.0,70.0,87,97,1.3,2.89,['22 Nov 2020 11:19:59']
423,1035025,Nacala,MZ,-14.54,40.67,299.79,27.0,80.0,74,1,2.97,6.6,['22 Nov 2020 11:19:59']
424,184707,Naivasha,KE,-0.72,36.44,289.26,16.0,61.0,78,96,4.92,10.93,['22 Nov 2020 11:19:59']
425,103630,Najrān,SA,17.49,44.13,295.15,22.0,72.0,28,0,2.1,4.67,['22 Nov 2020 11:19:59']
426,1608462,Nam Som,TH,17.77,102.19,298.71,26.0,78.0,99,75,0.9,2.0,['22 Nov 2020 11:19:59']
427,2090021,Namatanai,PG,-3.67,152.43,299.16,26.0,79.0,73,77,2.67,5.93,['22 Nov 2020 11:19:59']
428,3347019,Mossamedes,AO,-15.2,12.15,299.15,26.0,79.0,69,40,5.1,11.33,['22 Nov 2020 11:19:59']
429,1033356,Nampula,MZ,-15.12,39.27,304.98,32.0,89.0,58,75,5.7,12.67,['22 Nov 2020 11:19:59']
430,4944903,Nantucket,US,41.28,-70.1,283.43,11.0,51.0,66,90,6.2,13.78,['22 Nov 2020 11:19:59']
431,1855612,Nara,JP,34.69,135.8,286.22,13.0,56.0,93,100,1.97,4.38,['22 Nov 2020 11:19:59']
432,1185155,Nārāyanganj,BD,23.62,90.5,295.15,22.0,72.0,78,0,2.22,4.93,['22 Nov 2020 11:19:59']
433,3394023,Natal,BR,-5.79,-35.21,304.15,31.0,88.0,45,40,6.2,13.78,['22 Nov 2020 11:19:59']
434,237379,Ndélé,CF,8.41,20.65,303.32,30.0,86.0,29,87,1.61,3.58,['22 Nov 2020 11:19:59']
435,2750466,Gemeente Nederweert,NL,51.28,5.73,282.48,9.0,49.0,97,100,0.89,1.98,['22 Nov 2020 11:19:59']
436,2864005,Neustrelitz,DE,53.37,13.08,280.94,8.0,46.0,78,74,4.14,9.2,['22 Nov 2020 11:19:59']
437,2155415,New Norfolk,AU,-42.78,147.06,284.07,11.0,52.0,83,7,0.54,1.2,['22 Nov 2020 11:19:59']
438,151711,Ngara,TZ,-2.51,30.66,290.43,17.0,63.0,100,85,0.76,1.69,['22 Nov 2020 11:19:59']
439,2440485,Niamey,NE,13.51,2.11,307.15,34.0,93.0,11,0,2.1,4.67,['22 Nov 2020 11:19:59']
440,3622716,Nicoya,CR,10.15,-85.45,300.15,27.0,81.0,83,75,3.6,8.0,['22 Nov 2020 11:19:59']
441,2311968,Nioki,CD,-2.72,17.68,300.4,27.0,81.0,80,99,0.66,1.47,['22 Nov 2020 11:19:59']
442,644436,Noormarkku,FI,61.59,21.87,278.15,5.0,41.0,80,0,4.1,9.11,['22 Nov 2020 11:19:59']
443,2377457,Nouadhibou,MR,20.93,-17.03,305.15,32.0,90.0,19,42,2.6,5.78,['22 Nov 2020 11:19:59']
444,3456137,Nova Olímpia,BR,-14.8,-57.29,311.3,38.0,101.0,27,0,2.28,5.07,['22 Nov 2020 11:19:59']
445,3456125,Nova Prata,BR,-28.78,-51.61,299.3,26.0,79.0,10,1,2.24,4.98,['22 Nov 2020 11:19:59']
446,3934233,Ñuñoa,PE,-14.48,-70.64,289.47,16.0,61.0,27,44,3.44,7.64,['22 Nov 2020 11:19:59']
447,1303406,Nyaunglebin,MM,17.95,96.73,292.99,20.0,68.0,68,1,1.76,3.91,['22 Nov 2020 11:19:59']
448,236950,Obo,CF,5.4,26.49,299.25,26.0,79.0,47,27,1.13,2.51,['22 Nov 2020 11:19:59']
449,2283016,Odienné,CI,9.51,-7.57,306.66,33.0,92.0,22,46,2.21,4.91,['22 Nov 2020 11:19:59']
450,3354876,Okakarara,NA,-20.58,17.43,304.47,31.0,88.0,23,41,2.14,4.76,['22 Nov 2020 11:19:59']
451,2352110,Okitipupa,NG,6.5,4.78,303.27,30.0,86.0,63,98,3.06,6.8,['22 Nov 2020 11:19:59']
452,778362,Øksfjord,NO,70.24,22.35,270.2,-3.0,27.0,86,75,1.0,2.22,['22 Nov 2020 11:19:59']
453,3414079,Olafsvik,IS,64.89,-23.71,274.97,2.0,35.0,87,99,4.34,9.64,['22 Nov 2020 11:19:59']
454,3393536,Olinda,BR,-8.01,-34.86,302.15,29.0,84.0,54,40,5.1,11.33,['22 Nov 2020 11:19:59']
455,2396853,Omboué,GA,-1.57,9.26,298.52,26.0,78.0,90,97,3.5,7.78,['22 Nov 2020 11:19:59']
456,3354247,Ondangwa,NA,-17.92,15.95,307.15,34.0,93.0,32,70,2.1,4.67,['22 Nov 2020 11:19:59']
457,3354077,Opuwo,NA,-18.06,13.84,305.65,32.0,90.0,21,48,2.1,4.67,['22 Nov 2020 11:19:59']
458,3354071,Oranjemund,NA,-28.55,16.43,291.14,18.0,64.0,79,22,6.75,15.0,['22 Nov 2020 11:19:59']
459,2577164,Orodara,BF,10.95,-4.93,307.15,34.0,93.0,24,0,2.1,4.67,['22 Nov 2020 11:19:59']
460,556268,Ostrovnoy,RU,68.05,39.51,275.1,2.0,36.0,86,93,9.39,20.87,['22 Nov 2020 11:19:59']
461,2440371,Ouallam,NE,14.32,2.09,305.95,33.0,91.0,11,3,3.32,7.38,['22 Nov 2020 11:19:59']
462,236844,Ouango,CF,4.31,22.56,299.55,27.0,80.0,55,67,0.51,1.13,['22 Nov 2020 11:19:59']
463,2255564,Ouésso,CG,1.61,16.05,302.31,29.0,84.0,61,66,0.41,0.91,['22 Nov 2020 11:19:59']
464,2246901,Oussouye,SN,12.48,-16.55,306.62,33.0,92.0,62,20,2.1,4.67,['22 Nov 2020 11:19:59']
465,2255542,Owando,CG,-0.48,15.9,300.69,28.0,82.0,75,61,1.35,3.0,['22 Nov 2020 11:19:59']
466,1633419,Padang,ID,-0.95,100.35,297.99,25.0,77.0,85,100,2.93,6.51,['22 Nov 2020 11:19:59']
467,3653523,Palora,EC,-1.7,-77.93,293.15,20.0,68.0,94,75,2.6,5.78,['22 Nov 2020 11:19:59']
468,1131162,Panjāb,AF,34.39,67.02,270.86,-2.0,28.0,95,100,1.23,2.73,['22 Nov 2020 11:19:59']
469,3814639,Papayal,PE,-4.08,-80.74,302.73,29.0,85.0,42,0,3.83,8.51,['22 Nov 2020 11:19:59']
470,3393065,Parambu,BR,-6.21,-40.69,304.89,32.0,89.0,43,72,3.37,7.49,['22 Nov 2020 11:19:59']
471,3455082,Paramirim,BR,-13.44,-42.24,298.9,26.0,78.0,76,65,5.6,12.44,['22 Nov 2020 11:19:59']
472,3393008,Parintins,BR,-2.63,-56.74,301.37,28.0,83.0,80,82,1.91,4.24,['22 Nov 2020 11:19:59']
473,3392998,Parnamirim,BR,-5.92,-35.26,304.15,31.0,88.0,45,40,6.2,13.78,['22 Nov 2020 11:19:59']
474,1260206,Pāsighāt,IN,28.07,95.33,288.48,16.0,60.0,75,0,1.77,3.93,['22 Nov 2020 11:19:59']
475,3908339,Patacamaya,BO,-17.23,-67.92,289.65,17.0,62.0,31,78,5.08,11.29,['22 Nov 2020 11:19:59']
476,3392887,Patos,BR,-7.02,-37.28,310.19,37.0,99.0,17,22,5.41,12.02,['22 Nov 2020 11:19:59']
477,3662927,Pauini,BR,-7.71,-66.98,304.58,32.0,89.0,67,92,1.35,3.0,['22 Nov 2020 11:19:59']
478,3703239,Pedasí,PA,7.53,-80.03,299.8,27.0,80.0,81,8,5.26,11.69,['22 Nov 2020 11:19:59']
479,1631637,Pemangkat,ID,1.17,108.97,299.41,26.0,79.0,83,76,2.69,5.98,['22 Nov 2020 11:19:59']
480,2640351,Peterhead,GB,57.51,-1.8,279.92,7.0,44.0,65,100,4.6,10.22,['22 Nov 2020 11:19:59']
481,3454005,Piaçabuçu,BR,-10.41,-36.43,301.49,28.0,83.0,65,7,5.82,12.93,['22 Nov 2020 11:19:59']
482,2153259,Picton,AU,-34.18,150.6,294.44,21.0,70.0,87,88,0.79,1.76,['22 Nov 2020 11:19:59']
483,965289,Polokwane,ZA,-23.9,29.47,300.15,27.0,81.0,44,75,2.6,5.78,['22 Nov 2020 11:19:59']
484,2324857,Pindiga,NG,9.98,10.93,305.15,32.0,90.0,25,0,3.1,6.89,['22 Nov 2020 11:19:59']
485,1798760,Pingliang,CN,35.54,106.69,267.54,-6.0,22.0,93,99,0.52,1.16,['22 Nov 2020 11:19:59']
486,3516926,Pinotepa Nacional,MX,16.32,-98.02,304.9,32.0,89.0,42,1,0.64,1.42,['22 Nov 2020 11:19:59']
487,3932145,Pisco,PE,-13.7,-76.22,292.68,19.0,67.0,72,40,4.6,10.22,['22 Nov 2020 11:19:59']
488,3453478,Pitanga,BR,-24.76,-51.76,298.14,25.0,77.0,45,46,1.73,3.84,['22 Nov 2020 11:19:59']
489,3391889,Pitimbu,BR,-7.47,-34.81,304.15,31.0,88.0,55,75,5.1,11.33,['22 Nov 2020 11:19:59']
490,964712,Plettenberg Bay,ZA,-34.05,23.37,291.54,18.0,65.0,71,82,1.79,3.98,['22 Nov 2020 11:19:59']
491,3068119,Podbořany,CZ,50.23,13.41,275.01,2.0,35.0,100,90,3.1,6.89,['22 Nov 2020 11:19:59']
492,146137,Polis,CY,35.04,32.43,288.83,16.0,60.0,63,20,2.1,4.67,['22 Nov 2020 11:19:59']
493,3372783,Ponta Delgada,PT,37.73,-25.67,291.15,18.0,64.0,72,20,5.1,11.33,['22 Nov 2020 11:19:59']
494,2264557,Ponta do Sol,PT,32.67,-17.1,292.15,19.0,66.0,72,40,5.7,12.67,['22 Nov 2020 11:19:59']
495,1732711,Pontian Kecil,MY,1.48,103.39,297.42,24.0,76.0,100,20,1.0,2.22,['22 Nov 2020 11:19:59']
496,3453014,Porangatu,BR,-13.44,-49.15,304.54,32.0,89.0,54,37,2.18,4.84,['22 Nov 2020 11:19:59']
497,1259395,Porbandar,IN,21.64,69.61,296.83,24.0,75.0,45,0,5.17,11.49,['22 Nov 2020 11:19:59']
498,964432,Port Alfred,ZA,-33.59,26.89,293.17,20.0,68.0,80,100,3.09,6.87,['22 Nov 2020 11:19:59']
499,1259385,Port Blair,IN,11.67,92.75,300.87,28.0,82.0,81,95,4.28,9.51,['22 Nov 2020 11:19:59']
500,964420,Port Elizabeth,ZA,-33.92,25.57,292.15,19.0,66.0,82,0,4.6,10.22,['22 Nov 2020 11:19:59']
501,2063042,Port Hedland,AU,-20.32,118.57,300.15,27.0,81.0,69,8,2.1,4.67,['22 Nov 2020 11:19:59']
502,2088122,Port Moresby,PG,-9.44,147.18,298.15,25.0,77.0,94,75,1.5,3.33,['22 Nov 2020 11:19:59']
503,964406,Port Shepstone,ZA,-30.74,30.45,294.36,21.0,70.0,84,100,5.4,12.0,['22 Nov 2020 11:19:59']
504,200061,Port Victoria,KE,0.09,33.98,297.07,24.0,75.0,67,61,2.13,4.73,['22 Nov 2020 11:19:59']
505,6111696,Port-Cartier,CA,50.03,-66.87,268.71,-4.0,24.0,57,10,2.1,4.67,['22 Nov 2020 11:19:59']
506,2396518,Port-Gentil,GA,-0.72,8.78,297.15,24.0,75.0,94,40,3.6,8.0,['22 Nov 2020 11:19:59']
507,2640030,Portlethen,GB,57.05,-2.13,279.1,6.0,43.0,65,100,4.6,10.22,['22 Nov 2020 11:19:59']
508,1630723,Poso,ID,-1.4,120.75,301.48,28.0,83.0,73,99,1.58,3.51,['22 Nov 2020 11:19:59']
509,5167350,Powell,US,40.16,-83.08,278.47,6.0,42.0,87,90,2.6,5.78,['22 Nov 2020 11:19:59']
510,3452483,Prado,BR,-17.34,-39.22,296.54,23.0,74.0,88,100,3.95,8.78,['22 Nov 2020 11:19:59']
511,3374333,Praia,CV,14.92,-23.51,303.15,30.0,86.0,58,0,4.6,10.22,['22 Nov 2020 11:19:59']
512,3372760,Praia da Vitória,PT,38.73,-27.07,292.15,19.0,66.0,77,40,3.58,7.96,['22 Nov 2020 11:19:59']
513,3391287,Prainha,BR,-1.8,-53.48,298.68,26.0,78.0,88,100,1.87,4.16,['22 Nov 2020 11:19:59']
514,3374333,Praia,CV,14.92,-23.51,303.15,30.0,86.0,58,0,4.6,10.22,['22 Nov 2020 11:19:59']
515,2295840,Prestea,GH,5.43,-2.14,299.34,26.0,79.0,84,87,3.1,6.89,['22 Nov 2020 11:19:59']
516,3192420,Prigrevica,RS,45.68,19.09,278.15,5.0,41.0,75,90,4.1,9.11,['22 Nov 2020 11:19:59']
517,3521108,Progreso,MX,21.28,-89.67,301.52,28.0,83.0,66,75,3.1,6.89,['22 Nov 2020 11:19:59']
518,3652764,Puerto Ayora,EC,-0.74,-90.35,296.73,23.0,74.0,78,90,6.7,14.89,['22 Nov 2020 11:19:59']
519,3520994,Puerto Escondido,MX,15.85,-97.07,303.15,30.0,86.0,74,5,0.47,1.04,['22 Nov 2020 11:19:59']
520,3444201,Puerto Quijarro,BO,-17.78,-57.77,314.44,41.0,106.0,14,0,2.36,5.24,['22 Nov 2020 11:19:59']
521,1259264,Pulivendla,IN,14.42,78.23,297.0,24.0,75.0,66,77,2.22,4.93,['22 Nov 2020 11:19:59']
522,3874787,Punta Arenas,CL,-53.15,-70.92,287.15,14.0,57.0,69,75,9.8,21.78,['22 Nov 2020 11:19:59']
523,3629614,Punta Cardon,VE,11.66,-70.22,302.53,29.0,85.0,69,100,5.01,11.13,['22 Nov 2020 11:19:59']
524,1259184,Puri,IN,19.8,85.85,296.15,23.0,73.0,73,23,1.0,2.22,['22 Nov 2020 11:19:59']
525,3831208,Qaanaaq,GL,77.48,-69.36,255.26,-18.0,-0.0,78,16,2.27,5.04,['22 Nov 2020 11:19:59']
526,3420846,Qaqortoq,GL,60.72,-46.03,268.15,-5.0,23.0,67,100,1.0,2.22,['22 Nov 2020 11:19:59']
527,1028434,Quelimane,MZ,-17.88,36.89,302.14,29.0,84.0,74,0,6.7,14.89,['22 Nov 2020 11:19:59']
528,3146487,Raudeberg,NO,61.99,5.14,279.32,6.0,43.0,70,75,9.3,20.67,['22 Nov 2020 11:19:59']
529,3372707,Ribeira Grande,PT,38.52,-28.7,293.15,20.0,68.0,64,20,4.6,10.22,['22 Nov 2020 11:19:59']
530,962367,Richards Bay,ZA,-28.78,32.04,295.33,22.0,72.0,89,100,4.04,8.98,['22 Nov 2020 11:19:59']
531,4030556,Rikitea,PF,-23.12,-134.97,296.62,23.0,74.0,73,81,4.49,9.98,['22 Nov 2020 11:19:59']
532,3451242,Rio Branco do Sul,BR,-25.19,-49.31,297.52,24.0,76.0,53,40,7.7,17.11,['22 Nov 2020 11:19:59']
533,108410,Riyadh,SA,24.69,46.72,294.15,21.0,70.0,35,0,4.1,9.11,['22 Nov 2020 11:19:59']
534,3141667,Roald,NO,62.58,6.13,279.04,6.0,43.0,75,75,9.8,21.78,['22 Nov 2020 11:19:59']
535,2274275,Robertsport,LR,6.75,-11.37,300.47,27.0,81.0,75,81,3.76,8.36,['22 Nov 2020 11:19:59']
536,3440777,Rocha,UY,-34.48,-54.33,298.17,25.0,77.0,42,0,2.67,5.93,['22 Nov 2020 11:19:59']
537,3141548,Rognan,NO,67.1,15.39,276.3,3.0,38.0,91,100,1.15,2.56,['22 Nov 2020 11:19:59']
538,2523585,Rosarno,IT,38.48,15.98,286.67,13.0,56.0,72,5,2.24,4.98,['22 Nov 2020 11:19:59']
539,499717,Rzhev,RU,56.26,34.33,272.69,-1.0,31.0,96,100,5.24,11.64,['22 Nov 2020 11:19:59']
540,2212775,Sabha,LY,27.04,14.43,292.72,19.0,67.0,26,75,3.5,7.78,['22 Nov 2020 11:19:59']
541,118063,Sabzawār,IR,36.21,57.68,276.15,3.0,37.0,86,90,7.2,16.0,['22 Nov 2020 11:19:59']
542,5546220,Saint George,US,37.1,-113.58,280.15,7.0,45.0,39,1,2.1,4.67,['22 Nov 2020 11:19:59']
543,6137462,Saint-Augustin,CA,51.23,-58.65,267.89,-5.0,23.0,83,0,4.37,9.71,['22 Nov 2020 11:19:59']
544,2980080,Saint-François,FR,46.42,3.91,279.15,6.0,43.0,70,0,1.5,3.33,['22 Nov 2020 11:19:59']
545,3579925,St. George's,GD,12.06,-61.75,302.15,29.0,84.0,74,20,11.3,25.11,['22 Nov 2020 11:19:59']
546,6690296,Saint-Joseph,RE,-21.37,55.62,297.15,24.0,75.0,73,75,7.2,16.0,['22 Nov 2020 11:19:59']
547,2978105,Saint-Max,FR,48.7,6.21,280.55,7.0,45.0,81,0,0.5,1.11,['22 Nov 2020 11:19:59']
548,935215,Saint-Philippe,RE,-21.36,55.77,295.49,22.0,72.0,73,75,7.2,16.0,['22 Nov 2020 11:19:59']
549,286621,Salalah,OM,17.02,54.09,301.15,28.0,82.0,74,75,4.1,9.11,['22 Nov 2020 11:19:59']
550,3361934,Saldanha,ZA,-33.01,17.94,294.15,21.0,70.0,49,16,6.7,14.89,['22 Nov 2020 11:19:59']
551,3389822,Salinópolis,BR,-0.61,-47.36,303.41,30.0,86.0,65,21,5.87,13.04,['22 Nov 2020 11:19:59']
552,3838233,Salta,AR,-24.79,-65.41,301.15,28.0,82.0,34,20,3.6,8.0,['22 Nov 2020 11:19:59']
553,3440714,Salto,UY,-31.38,-57.97,301.73,28.0,83.0,42,20,7.2,16.0,['22 Nov 2020 11:19:59']
554,1629001,Samarinda,ID,-0.5,117.15,296.8,24.0,75.0,96,96,0.45,1.0,['22 Nov 2020 11:19:59']
555,4726206,San Antonio,US,29.42,-98.49,294.57,22.0,71.0,83,20,2.1,4.67,['22 Nov 2020 11:19:59']
556,7647007,Bariloche,AR,-41.15,-71.31,290.15,17.0,63.0,36,20,8.7,19.33,['22 Nov 2020 11:19:59']
557,3628473,San Cristobal,VE,7.77,-72.22,303.15,30.0,86.0,58,40,3.1,6.89,['22 Nov 2020 11:19:59']
558,3602066,San José de Río Tinto,HN,14.93,-85.7,301.15,28.0,82.0,69,40,0.19,0.42,['22 Nov 2020 11:19:59']
559,3837213,San Juan,AR,-31.54,-68.54,305.18,32.0,90.0,25,0,5.74,12.76,['22 Nov 2020 11:19:59']
560,4726521,San Patricio,US,28.02,-97.52,297.77,24.0,76.0,73,75,3.1,6.89,['22 Nov 2020 11:19:59']
561,3662489,Santa Isabel Rio Negro,BR,-0.41,-65.02,305.51,32.0,90.0,58,90,1.42,3.16,['22 Nov 2020 11:19:59']
562,3450083,Santa Maria,BR,-29.68,-53.81,299.15,26.0,79.0,50,0,5.7,12.67,['22 Nov 2020 11:19:59']
563,1687894,Santa Rosa,PH,14.31,121.11,299.73,27.0,80.0,69,20,4.87,10.82,['22 Nov 2020 11:19:59']
564,3389353,Santarém,BR,-2.44,-54.71,301.15,28.0,82.0,78,75,3.1,6.89,['22 Nov 2020 11:19:59']
565,3374210,São Filipe,CV,14.9,-24.5,299.16,26.0,79.0,69,1,4.6,10.22,['22 Nov 2020 11:19:59']
566,3662342,São Gabriel da Cachoeira,BR,-0.13,-67.09,305.15,32.0,90.0,62,20,1.5,3.33,['22 Nov 2020 11:19:59']
567,3388760,São Geraldo do Araguaia,BR,-6.4,-48.55,304.75,32.0,89.0,64,89,0.57,1.27,['22 Nov 2020 11:19:59']
568,3448903,São João da Barra,BR,-21.64,-41.05,299.2,26.0,79.0,61,75,5.1,11.33,['22 Nov 2020 11:19:59']
569,3388456,São José da Coroa Grande,BR,-8.9,-35.15,301.28,28.0,83.0,64,13,4.68,10.4,['22 Nov 2020 11:19:59']
570,3448455,São Miguel do Araguaia,BR,-13.28,-50.16,306.49,33.0,92.0,45,87,2.14,4.76,['22 Nov 2020 11:19:59']
571,174726,Saravan,AM,39.72,45.65,278.15,5.0,41.0,75,20,3.1,6.89,['22 Nov 2020 11:19:59']
572,1257198,Sardārshahr,IN,28.43,74.48,290.74,18.0,64.0,28,58,3.36,7.47,['22 Nov 2020 11:19:59']
573,145531,Saurimo,AO,-9.66,20.39,305.15,32.0,90.0,43,40,2.6,5.78,['22 Nov 2020 11:19:59']
574,3601402,Savannah Bight,HN,16.45,-85.85,300.24,27.0,81.0,83,40,1.5,3.33,['22 Nov 2020 11:19:59']
575,3662155,Sena Madureira,BR,-9.07,-68.66,310.18,37.0,99.0,35,93,1.63,3.62,['22 Nov 2020 11:19:59']
576,328880,Sendafa,ET,9.15,39.03,283.43,11.0,51.0,45,1,2.22,4.93,['22 Nov 2020 11:19:59']
577,6144312,Sept-Îles,CA,50.2,-66.38,268.53,-4.0,24.0,57,12,2.1,4.67,['22 Nov 2020 11:19:59']
578,2323411,Sagamu,NG,6.84,3.65,302.98,30.0,86.0,57,69,1.8,4.0,['22 Nov 2020 11:19:59']
579,1795632,Shenjiamen,CN,29.96,122.3,287.92,15.0,59.0,80,99,8.84,19.64,['22 Nov 2020 11:19:59']
580,2637891,Shrewsbury,GB,52.71,-2.75,279.03,6.0,43.0,81,32,3.1,6.89,['22 Nov 2020 11:19:59']
581,383388,Siaya,KE,0.06,34.29,295.15,22.0,72.0,78,75,1.5,3.33,['22 Nov 2020 11:19:59']
582,2255285,Sibiti,CG,-3.68,13.35,294.92,22.0,71.0,99,100,0.95,2.11,['22 Nov 2020 11:19:59']
583,1213855,Sibolga,ID,1.74,98.78,297.57,24.0,76.0,80,97,1.42,3.16,['22 Nov 2020 11:19:59']
584,2487130,Sidi Ali,DZ,36.1,0.42,286.13,13.0,55.0,67,51,4.59,10.2,['22 Nov 2020 11:19:59']
585,2451184,Sikasso,ML,10.92,-7.0,307.34,34.0,94.0,18,0,1.58,3.51,['22 Nov 2020 11:19:59']
586,1627035,Simpang,ID,-1.27,104.08,297.92,25.0,77.0,90,89,0.74,1.64,['22 Nov 2020 11:19:59']
587,3380290,Sinnamary,GF,5.38,-52.95,300.11,27.0,81.0,86,92,5.46,12.13,['22 Nov 2020 11:19:59']
588,5557293,Sitka,US,57.05,-135.33,278.15,5.0,41.0,75,90,3.6,8.0,['22 Nov 2020 11:19:59']
589,666580,Socol,RO,44.86,21.37,275.28,2.0,36.0,74,0,0.5,1.11,['22 Nov 2020 11:19:59']
590,149812,Sokoni,TZ,-6.43,39.55,302.46,29.0,85.0,66,20,4.6,10.22,['22 Nov 2020 11:19:59']
591,3137469,Sørland,NO,67.67,12.69,279.15,6.0,43.0,87,75,2.1,4.67,['22 Nov 2020 11:19:59']
592,933995,Souillac,MU,-20.52,57.52,297.15,24.0,75.0,88,75,3.6,8.0,['22 Nov 2020 11:19:59']
593,2236967,Soyo,AO,-6.13,12.37,301.15,28.0,82.0,78,75,3.6,8.0,['22 Nov 2020 11:19:59']
594,2674649,Staffanstorp,SE,55.64,13.21,280.83,8.0,46.0,70,75,6.7,14.89,['22 Nov 2020 11:19:59']
595,1490796,Strezhevoy,RU,60.73,77.59,268.15,-5.0,23.0,92,75,3.0,6.67,['22 Nov 2020 11:19:59']
596,2636638,Stromness,GB,58.97,-3.3,279.15,6.0,43.0,81,75,9.8,21.78,['22 Nov 2020 11:19:59']
597,1685422,Sulangan,PH,11.14,123.72,301.66,28.0,83.0,79,77,8.75,19.44,['22 Nov 2020 11:19:59']
598,149703,Sumbawanga,TZ,-7.97,31.62,296.15,23.0,73.0,73,75,0.3,0.67,['22 Nov 2020 11:19:59']
599,1255437,Sundargarh,IN,22.12,84.03,289.99,17.0,62.0,44,0,1.92,4.27,['22 Nov 2020 11:19:59']
600,739236,Sungurlu,TR,40.17,34.37,277.56,4.0,40.0,69,0,0.97,2.16,['22 Nov 2020 11:19:59']
601,286245,Sur,OM,22.57,59.53,295.92,23.0,73.0,54,0,3.37,7.49,['22 Nov 2020 11:19:59']
602,2210554,Sirte,LY,31.21,16.59,295.23,22.0,72.0,57,26,6.43,14.29,['22 Nov 2020 11:19:59']
603,2523082,Syracuse,IT,37.09,15.28,289.71,17.0,62.0,77,40,9.3,20.67,['22 Nov 2020 11:19:59']
604,113659,Tabas,IR,33.6,56.92,284.15,11.0,52.0,76,77,3.1,6.89,['22 Nov 2020 11:19:59']
605,2281120,Tabou,CI,4.42,-7.35,300.28,27.0,81.0,81,65,4.2,9.33,['22 Nov 2020 11:19:59']
606,1684803,Tabuk,PH,17.42,121.44,294.57,22.0,71.0,86,13,2.17,4.82,['22 Nov 2020 11:19:59']
607,347634,Ţahţā,EG,26.77,31.5,294.73,22.0,71.0,31,0,3.6,8.0,['22 Nov 2020 11:19:59']
608,2294915,Takoradze,GH,4.88,-1.76,299.92,27.0,80.0,81,91,5.02,11.16,['22 Nov 2020 11:19:59']
609,4174715,Tallahassee,US,30.44,-84.28,295.06,22.0,71.0,60,75,2.6,5.78,['22 Nov 2020 11:19:59']
610,3870243,Taltal,CL,-25.4,-70.48,292.7,19.0,67.0,55,47,3.27,7.27,['22 Nov 2020 11:19:59']
611,2244991,Tambacounda,SN,13.75,-13.76,311.15,38.0,100.0,15,0,3.1,6.89,['22 Nov 2020 11:19:59']
612,2439155,Tanout,NE,14.97,8.89,297.91,25.0,77.0,19,0,2.56,5.69,['22 Nov 2020 11:19:59']
613,2450173,Taoudenni,ML,22.68,-3.98,297.93,25.0,77.0,23,0,6.79,15.09,['22 Nov 2020 11:19:59']
614,3424607,Tasiilaq,GL,65.61,-37.64,267.15,-6.0,21.0,79,34,1.5,3.33,['22 Nov 2020 11:19:59']
615,3516022,Temozon,MX,20.8,-88.22,302.41,29.0,85.0,62,7,1.8,4.0,['22 Nov 2020 11:19:59']
616,3516017,Tenabo,MX,20.05,-90.23,300.15,27.0,81.0,78,40,5.1,11.33,['22 Nov 2020 11:19:59']
617,6162949,Terrace,CA,54.52,-128.6,273.15,0.0,32.0,87,90,1.04,2.31,['22 Nov 2020 11:19:59']
618,2449893,Tessalit,ML,20.2,1.01,299.93,27.0,80.0,16,80,3.52,7.82,['22 Nov 2020 11:19:59']
619,1254709,Tezu,IN,27.92,96.17,288.43,16.0,60.0,62,7,1.83,4.07,['22 Nov 2020 11:19:59']
620,1337610,Thinadhoo,MV,0.53,72.93,301.41,28.0,83.0,74,48,4.24,9.42,['22 Nov 2020 11:19:59']
621,6165406,Thompson,CA,55.74,-97.86,256.15,-17.0,1.0,77,20,4.1,9.11,['22 Nov 2020 11:19:59']
622,4033356,Tiarei,PF,-17.53,-149.33,297.09,24.0,75.0,78,20,1.5,3.33,['22 Nov 2020 11:19:59']
623,2221513,Tignère,CM,7.37,12.65,296.93,24.0,75.0,39,99,2.04,4.53,['22 Nov 2020 11:19:59']
624,2527087,Tiznit Province,MA,29.58,-9.5,294.28,21.0,70.0,29,0,2.87,6.38,['22 Nov 2020 11:19:59']
625,3869716,Tocopilla,CL,-22.09,-70.2,295.06,22.0,71.0,47,81,4.75,10.56,['22 Nov 2020 11:19:59']
626,3981391,Tomatlán,MX,19.93,-105.25,305.07,32.0,89.0,44,0,1.26,2.8,['22 Nov 2020 11:19:59']
627,2449066,Tombouctou,ML,20.0,-3.0,301.19,28.0,82.0,16,16,3.73,8.29,['22 Nov 2020 11:19:59']
628,3981365,Tonaya,MX,19.78,-103.97,299.15,26.0,79.0,61,5,1.07,2.38,['22 Nov 2020 11:19:59']
629,6167817,Torbay,CA,47.67,-52.73,273.72,1.0,33.0,90,90,5.7,12.67,['22 Nov 2020 11:19:59']
630,2414544,Tougue,GN,11.47,-11.6,303.0,30.0,86.0,25,61,2.22,4.93,['22 Nov 2020 11:19:59']
631,3386213,Touros,BR,-5.2,-35.46,304.15,31.0,88.0,52,40,5.1,11.33,['22 Nov 2020 11:19:59']
632,3386177,Trairi,BR,-3.28,-39.27,303.62,31.0,87.0,54,64,7.54,16.76,['22 Nov 2020 11:19:59']
633,3446098,Três Lagoas,BR,-20.75,-51.68,306.88,34.0,93.0,24,0,2.72,6.04,['22 Nov 2020 11:19:59']
634,933726,Tshane,BW,-24.02,21.87,304.98,32.0,89.0,22,59,2.87,6.38,['22 Nov 2020 11:19:59']
635,2311127,Tshela,CD,-4.98,12.93,297.92,25.0,77.0,92,95,1.66,3.69,['22 Nov 2020 11:19:59']
636,6170031,Tuktoyaktuk,CA,69.45,-133.04,254.15,-19.0,-2.0,84,5,5.1,11.33,['22 Nov 2020 11:19:59']
637,1254054,Tuni,IN,17.35,82.55,297.42,24.0,76.0,85,58,3.03,6.73,['22 Nov 2020 11:19:59']
638,101312,Turaif,SA,31.67,38.66,288.15,15.0,59.0,54,0,1.69,3.76,['22 Nov 2020 11:19:59']
639,1337619,Ugoofaaru,MV,5.67,73.0,301.6,28.0,83.0,72,78,5.1,11.33,['22 Nov 2020 11:19:59']
640,1162959,Umarkot,PK,25.36,69.74,295.52,22.0,72.0,22,0,3.8,8.44,['22 Nov 2020 11:19:59']
641,364933,Umm Kaddadah,SD,13.6,26.69,298.33,25.0,77.0,18,3,6.49,14.42,['22 Nov 2020 11:19:59']
642,100926,Umluj,SA,25.02,37.27,298.51,26.0,78.0,50,0,7.76,17.24,['22 Nov 2020 11:19:59']
643,149172,Urambo,TZ,-5.07,32.05,295.26,22.0,72.0,82,29,1.01,2.24,['22 Nov 2020 11:19:59']
644,1529102,Ürümqi,CN,43.8,87.6,265.15,-8.0,18.0,78,0,1.0,2.22,['22 Nov 2020 11:19:59']
645,1517637,Ushtobe,KZ,45.25,77.98,265.08,-8.0,17.0,93,60,3.77,8.38,['22 Nov 2020 11:19:59']
646,3833367,Ushuaia,AR,-54.8,-68.3,289.15,16.0,61.0,36,40,10.8,24.0,['22 Nov 2020 11:19:59']
647,3868626,Valparaíso,CL,-33.04,-71.63,291.43,18.0,65.0,59,0,3.1,6.89,['22 Nov 2020 11:19:59']
648,298117,Van,TR,38.49,43.38,276.15,3.0,37.0,93,20,1.5,3.33,['22 Nov 2020 11:19:59']
649,1054329,Vangaindrano,MG,-23.35,47.6,295.92,23.0,73.0,89,100,3.57,7.93,['22 Nov 2020 11:19:59']
650,2084442,Vanimo,PG,-2.67,141.3,299.6,27.0,80.0,80,100,0.29,0.64,['22 Nov 2020 11:19:59']
651,1253237,Verāval,IN,20.9,70.37,297.07,24.0,75.0,57,0,3.84,8.53,['22 Nov 2020 11:19:59']
652,3412093,Vestmannaeyjar,IS,63.44,-20.27,275.15,2.0,36.0,80,20,1.5,3.33,['22 Nov 2020 11:19:59']
653,1819729,Hong Kong,HK,22.29,114.16,295.74,23.0,73.0,85,11,5.3,11.78,['22 Nov 2020 11:19:59']
654,2013406,Vidim,RU,56.41,103.11,267.35,-6.0,22.0,97,100,3.23,7.18,['22 Nov 2020 11:19:59']
655,3832899,Viedma,AR,-40.81,-63.0,299.82,27.0,80.0,25,90,2.24,4.98,['22 Nov 2020 11:19:59']
656,3374120,Vila do Maio,CV,15.13,-23.22,303.15,30.0,86.0,58,0,4.6,10.22,['22 Nov 2020 11:19:59']
657,3372472,Vila Franca do Campo,PT,37.72,-25.43,291.15,18.0,64.0,72,20,5.1,11.33,['22 Nov 2020 11:19:59']
658,3445026,Vila Velha,BR,-20.33,-40.29,299.79,27.0,80.0,69,20,4.6,10.22,['22 Nov 2020 11:19:59']
659,3924679,Vilhena,BR,-12.74,-60.15,306.15,33.0,91.0,46,40,2.1,4.67,['22 Nov 2020 11:19:59']
660,2209055,Waddān,LY,29.16,16.14,294.85,22.0,71.0,29,49,6.73,14.96,['22 Nov 2020 11:19:59']
661,246008,Petra,JO,30.32,35.48,284.84,12.0,53.0,50,55,1.04,2.31,['22 Nov 2020 11:19:59']
662,3359638,Walvis Bay,NA,-22.96,14.51,293.21,20.0,68.0,56,0,7.2,16.0,['22 Nov 2020 11:19:59']
663,2319257,Wamba,NG,8.93,8.6,302.2,29.0,84.0,33,98,0.65,1.44,['22 Nov 2020 11:19:59']
664,1791779,Wanning,CN,18.8,110.4,297.46,24.0,76.0,90,37,3.21,7.13,['22 Nov 2020 11:19:59']
665,2319133,Warri,NG,5.52,5.75,302.56,29.0,85.0,63,97,3.87,8.6,['22 Nov 2020 11:19:59']
666,204283,Watsa,CD,3.04,29.54,293.29,20.0,68.0,92,49,0.53,1.18,['22 Nov 2020 11:19:59']
667,2294086,Wankyi,GH,7.74,-2.1,303.46,31.0,87.0,42,42,1.17,2.6,['22 Nov 2020 11:19:59']
668,932960,Werda,BW,-25.27,23.28,301.95,29.0,84.0,34,63,2.7,6.0,['22 Nov 2020 11:19:59']
669,2634032,Whitley Bay,GB,55.04,-1.45,279.26,6.0,43.0,75,78,4.1,9.11,['22 Nov 2020 11:19:59']
670,2294034,Winneba,GH,5.35,-0.62,301.15,28.0,82.0,78,20,4.6,10.22,['22 Nov 2020 11:19:59']
671,1788852,Xining,CN,36.62,101.77,264.43,-9.0,16.0,93,100,0.81,1.8,['22 Nov 2020 11:19:59']
672,49747,Oddur,SO,4.12,43.89,299.39,26.0,79.0,53,75,3.9,8.67,['22 Nov 2020 11:19:59']
673,326036,Yabēlo,ET,4.88,38.08,292.03,19.0,66.0,54,2,4.91,10.91,['22 Nov 2020 11:19:59']
674,162627,Yabrūd,SY,33.97,36.66,284.68,12.0,53.0,76,40,6.2,13.78,['22 Nov 2020 11:19:59']
675,1252795,Yanam,IN,16.73,82.22,300.15,27.0,81.0,69,40,2.6,5.78,['22 Nov 2020 11:19:59']
676,203717,Yangambi,CD,0.81,24.43,299.21,26.0,79.0,72,92,1.21,2.69,['22 Nov 2020 11:19:59']
677,6185377,Yellowknife,CA,62.46,-114.35,251.65,-22.0,-7.0,76,90,3.6,8.0,['22 Nov 2020 11:19:59']
678,2318123,Yenagoa,NG,4.92,6.26,302.5,29.0,85.0,65,78,2.37,5.27,['22 Nov 2020 11:19:59']
679,2318044,Yola,NG,9.2,12.48,304.48,31.0,88.0,26,31,0.53,1.18,['22 Nov 2020 11:19:59']
680,235826,Zemio,CF,5.03,25.14,297.45,24.0,76.0,56,17,1.05,2.33,['22 Nov 2020 11:19:59']
681,1785036,Zhangye,CN,38.93,100.45,264.96,-8.0,17.0,88,87,0.34,0.76,['22 Nov 2020 11:19:59']
682,831130,Znamensk,RU,48.58,45.73,272.86,-1.0,31.0,98,100,4.29,9.53,['22 Nov 2020 11:19:59']
